Unnamed: 0.1,Unnamed: 0,title,address,property_name,property_type,num_beds,num_baths,size_sqft,furnishing,lat,lng,subzone,planning_area,price,built_year,tenure,available_unit_types
0,0,hdb flat for sale in 506b serangoon north avenue 4,hougang / punggol / sengkang (d19),hdb-serangoon estate,hdb,4,2,1575,unspecified,1.373046875,103.875,serangoon north,serangoon,995400.0,1992,99-year leasehold,"1, 2, 3, 4, 5, 6 br"
1,1,4 bed condo for sale in meyerhouse,128 meyer road,meyerhouse,condo,4,6,3070,partial,1.298828125,103.875,mountbatten,marine parade,8485000.0,2022,freehold,"studio, 3, 4, 5, 6 br"
2,2,3 bed condo for sale in leedon green,26 leedon heights,leedon green,condo,3,2,958,partial,1.3125,103.8125,farrer court,bukit timah,2626000.0,2023,freehold,"studio, 1, 2, 3, 4 br"
3,3,2 bed condo for sale in one bernam,1 bernam street,one bernam,condo,2,1,732,unspecified,1.2744140625,103.8125,anson,downtown core,1764000.0,2026,99-year leasehold,"studio, 1, 2, 3, 4, 5 br"
4,4,2 bed condo for sale in forett @ bukit timah,32 toh tuck road,forett @ bukit timah,condo,2,2,689,unspecified,1.3388671875,103.75,bukit batok south,bukit batok,1702000.0,2024,freehold,"studio, 1, 2, 3, 4, 5 br"
5,5,3 bed condo for sale in piccadilly grand / piccadilly galleria,5 northumberland road,piccadilly grand / piccadilly galleria,condo,3,2,1076,unspecified,1.310546875,103.875,kampong java,kallang,2475900.0,2026,99-year leasehold,"studio, 1, 2, 3, 4, 5 br"
6,6,1 bed condo for sale in stevens suites,2 stevens close,stevens suites,condo,1,1,700,unspecified,1.3154296875,103.8125,nassim,tanglin,1312500.0,2014,freehold,"1, 2, 3, 4 br"
7,7,2 bed condo for sale in hyll on holland,89 holland road,hyll on holland,condo,2,1,570,unspecified,1.310546875,103.8125,leedon park,bukit timah,1802500.0,2025,freehold,"studio, 1, 2, 3, 4 br"
8,8,2 bed condo for sale in urban treasures,207 jalan eunos,urban treasures,condo,2,1,646,unspecified,1.330078125,103.875,kaki bukit,bedok,1365000.0,2023,freehold,"studio, 1, 2, 3, 4 br"
9,9,1 bed condo for sale in forett @ bukit timah,32b toh tuck road,forett @ bukit timah,condo,1,1,474,unspecified,1.3388671875,103.75,bukit batok south,bukit batok,1008000.0,2024,freehold,"studio, 1, 2, 3, 4, 5 br"
10,10,3 bed condo for sale in the gardens at bishan,1 sin ming walk,the gardens at bishan,condo,3,3,1227,unspecified,1.3642578125,103.8125,upper thomson,bishan,2079000.0,2004,99-year leasehold,"1, 2, 3, 4 br"
11,11,2 bed condo for sale in liv @ mb,114a arthur road,liv @ mb,condo,2,1,850,unspecified,1.2998046875,103.875,mountbatten,marine parade,2080000.0,2024,99-year leasehold,"studio, 1, 2, 3, 4, 5, 6, 7, 8, 9 br"
12,12,hdb flat for sale in 106 jalan dusun,balestier / toa payoh (d12),ah hood gardens,hdb,3,2,980,unspecified,1.3291015625,103.875,balestier,novena,554400.0,1981,99-year leasehold,3 br
13,13,4 bed condo for sale in v on shenton,5a shenton way,v on shenton,condo,4,7,6200,unspecified,1.27734375,103.875,cecil,downtown core,19740000.0,2017,99-year leasehold,"studio, 1, 2, 3, 4, 5 br"
14,14,hdb flat for sale in 508 ang mo kio avenue 8,ang mo kio / bishan / thomson (d20),cheng san crest,hdb,1,1,470,unspecified,1.3740234375,103.875,cheng san,ang mo kio,309800.0,1980,99-year leasehold,"1, 2, 3, 4, 5 br"
15,15,4 bed condo for sale in avenue south residence,1 silat avenue,avenue south residence,condo,4,4,1496,unspecified,1.3046875,103.75,dover,queenstown,2730000.0,2023,99-year leasehold,"studio, 1, 2, 3, 4 br"
16,16,5 bed house for sale in loyang villas,loyang rise,loyang villas,terraced house,5,5,2700,partial,1.3642578125,103.9375,flora drive,pasir ris,2079000.0,1996,99-year leasehold,"studio, 4, 5, 6, 7 br"
17,17,hdb flat for sale in 148 mei ling street,alexandra / commonwealth (d3),hdb-queenstown,hdb,4,2,1625,unspecified,1.2939453125,103.8125,mei chin,queenstown,1134000.0,1995,99-year leasehold,"studio, 1, 2, 3, 4, 5, 6 br"
18,18,hdb flat for sale in 662 jalan damai,eunos / geylang / paya lebar (d14),eunos damai ville,hdb,3,2,1560,unspecified,1.3349609375,103.9375,kaki bukit,bedok,934500.0,1996,99-year leasehold,"1, 2, 3, 4 br"
19,19,1 bed condo for sale in icon,10 gopeng street,icon,condo,1,1,657,unspecified,1.294921875,103.875,bras basah,museum,1365000.0,2007,99-year leasehold,"studio, 1, 2, 3 br"
20,20,4 bed house for sale in the carrara,mountbatten road,the carrara,semi-detached house,4,5,4716,unspecified,1.30078125,103.875,mountbatten,marine parade,8059800.0,2025,freehold,"studio, 4, 5, 6, 7 br"
21,21,3 bed condo for sale in rhapsody on mount elizabeth,16 mount elizabeth,rhapsody on mount elizabeth,condo,3,2,1561,unspecified,1.306640625,103.8125,cairnhill,newton,3832500.0,2010,freehold,"2, 3, 4 br"
22,22,2 bed condo for sale in v on shenton,5a shenton way,v on shenton,condo,2,2,1098,partial,1.27734375,103.875,cecil,downtown core,2719500.0,2017,99-year leasehold,"studio, 1, 2, 3, 4, 5 br"
23,23,3 bed condo for sale in 1953,1 tessensohn road,1953,condo,3,3,1130,unspecified,1.3164313,103.8575321,balestier,novena,2671200.0,2023,freehold,"studio, 1, 2, 3, 4, 5, 6 br"
24,24,4 bed house for sale in opera estate,norma terrace,opera estate,terraced house,4,4,1392,unspecified,1.3193359375,103.9375,frankel,bedok,4830000.0,1980,freehold,"studio, 2, 3, 4, 5, 6, 7, 8, 9 br"
25,25,3 bed condo for sale in mooi residences,139 holland road,mooi residences,condo,3,3,1281,unspecified,1.30859375,103.8125,ridout,tanglin,3245400.0,2024,freehold,"studio, 2, 3, 4 br"
26,26,3 bed condo for sale in van holland,188 holland road,van holland,condo,3,2,1130,unspecified,1.30859375,103.8125,ridout,tanglin,3032400.0,2023,freehold,"1, 2, 3, 4, 6 br"
27,27,hdb flat for sale in 677a yishun ring road,sembawang / yishun (d27),park grove @ yishun,hdb,3,2,1001,unspecified,1.423828125,103.875,yishun east,yishun,581700.0,2017,99-year leasehold,"1, 3 br"
28,28,1 bed condo for sale in haus on handy,30 handy road,haus on handy,condo,1,1,452,unspecified,1.2998046875,103.875,dhoby ghaut,museum,1342300.0,2023,99-year leasehold,"1, 2, 3 br"
29,29,4 bed condo for sale in the gazania,13 how sun drive,the gazania,condo,4,4,1765,partial,1.3447265625,103.875,upper paya lebar,serangoon,3360000.0,2022,freehold,"studio, 1, 2, 3, 4, 5 br"
30,30,1 bed condo for sale in parksuites,28 holland grove road,parksuites,condo,1,1,646,unspecified,1.302734375,103.8125,boulevard,orchard,1412200.0,2023,99-year leasehold,"1, 2, 3, 4 br"
31,31,4 bed condo for sale in one holland village residences / one holland village,5 holland village way,one holland village residences / one holland village,condo,4,3,2088,partial,1.3115234375,103.8125,holland drive,queenstown,7350000.0,2025,99-year leasehold,"1, 2, 3, 4, 5 br"
32,32,hdb flat for sale in 456 segar road,bukit batok / bukit panjang / choa chu kang (d23),segar meadows,hdb,3,2,1000,unspecified,1.38671875,103.75,fajar,bukit panjang,577500.0,2012,99-year leasehold,"1, 3, 4 br"
33,33,2 bed condo for sale in the arden,4 phoenix road,the arden,condo,2,1,657,unspecified,1.376953125,103.75,gombak,bukit batok,892500.0,2025,99-year leasehold,"2, 3, 4, 5 br"
34,34,5 bed house for sale in westlake gardens,westlake avenue,westlake gardens,semi-detached house,5,7,4350,unspecified,1.3447265625,103.8125,upper thomson,bishan,12075000.0,2000,freehold,"4, 5, 6, 7, 8 br"
35,35,3 bed condo for sale in d'leedon,7 leedon heights,d'leedon,condo,3,3,1453,unspecified,1.3154296875,103.8125,farrer court,bukit timah,2887500.0,2015,99-year leasehold,"studio, 1, 2, 3, 4, 5, 6 br"
36,36,hdb flat for sale in 767 bedok reservoir view,bedok / upper east coast (d16),longvale,hdb,3,2,1130,unspecified,1.3359375,103.9375,bedok reservoir,bedok,648900.0,2000,99-year leasehold,"1, 3, 4 br"
37,37,hdb flat for sale in 362a sembawang crescent,sembawang / yishun (d27),sun natura,hdb,3,2,1001,unspecified,1.447265625,103.8125,sembawang central,sembawang,609000.0,2018,99-year leasehold,3 br
38,38,5 bed house for sale in seletar hills estate,jalan bangau,seletar hills estate,semi-detached house,5,6,5000,unspecified,1.38671875,103.875,seletar hills,serangoon,7119000.0,2013,freehold,"3, 4, 5, 6, 7, 8 br"
39,39,4 bed condo for sale in zyanya,8 lorong 25a geylang,zyanya,condo,4,3,1313,unspecified,1.3134765625,103.875,aljunied,geylang,2274800.0,2025,freehold,"1, 2, 3, 4 br"
40,40,3 bed condo for sale in hyll on holland,89 holland road,hyll on holland,condo,3,2,936,unspecified,1.310546875,103.8125,leedon park,bukit timah,2310000.0,2025,freehold,"studio, 1, 2, 3, 4 br"
41,41,2 bed condo for sale in sky [email protected],1 bedok central,sky [email protected],condo,2,2,689,unfurnished,1.3251953125,103.9375,bedok north,bedok,1375500.0,2027,99-year leasehold,"1, 2, 3, 4 br"
42,42,5 bed condo for sale in sky everton,50 everton road,sky everton,condo,5,4,1819,unspecified,1.275390625,103.8125,everton park,bukit merah,6161400.0,2023,freehold,"1, 2, 3, 4, 5, 6 br"
43,43,hdb flat for sale in 450 pasir ris drive 6,pasir ris / tampines (d18),hdb-pasir ris,hdb,3,2,1130,unspecified,1.37109375,103.9375,pasir ris drive,pasir ris,575400.0,1989,99-year leasehold,"studio, 1, 2, 3, 4, 5, 6 br"
44,44,hdb flat for sale in 290e bukit batok street 24,bukit batok / bukit panjang / choa chu kang (d23),spring view,hdb,3,2,1313,unspecified,1.34375,103.75,bukit batok south,bukit batok,628800.0,1997,99-year leasehold,"2, 3, 4 br"
45,45,2 bed condo for sale in the m,30 middle road,the m,condo,2,2,753,unspecified,1.2978515625,103.875,bugis,downtown core,2288000.0,2024,99-year leasehold,"studio, 1, 2, 3 br"
46,46,4 bed condo for sale in 1953,1 tessensohn road,1953,condo,4,4,1399,unspecified,1.3164313,103.8575321,balestier,novena,3272800.0,2023,freehold,"studio, 1, 2, 3, 4, 5, 6 br"
47,47,3 bed ec for sale in ola,70 anchorvale crescent,ola,executive condo,3,2,926,fully,1.3974609375,103.875,anchorvale,sengkang,1076200.0,2023,99-year leasehold,"2, 3, 4, 5 br"
48,48,3 bed condo for sale in perfect ten,321 bukit timah road,perfect ten,condo,3,2,1281,unspecified,1.3173828125,103.8125,nassim,tanglin,3922700.0,2025,freehold,"studio, 2, 3, 4 br"
49,49,3 bed condo for sale in midtown modern,16 tan quee lan street,midtown modern,condo,3,2,904,unspecified,1.298828125,103.875,bugis,downtown core,2516800.0,2024,99-year leasehold,"studio, 1, 2, 3, 4, 5, 6 br"
50,50,hdb flat for sale in 637 pasir ris drive 1,pasir ris / tampines (d18),hdb-pasir ris,hdb,4,2,1313,unspecified,1.376953125,103.9375,pasir ris west,pasir ris,724500.0,1989,99-year leasehold,"studio, 1, 2, 3, 4, 5, 6 br"
51,51,1 bed condo for sale in grange 1866,74 grange road,grange 1866,condo,1,1,527,partial,1.3037109375,103.8125,chatsworth,tanglin,1541400.0,2024,freehold,"1, 2 br"
52,52,6 bed house for sale in frankel estate,siglap road,frankel estate,bungalow,6,6,7015,partial,1.3173828125,103.9375,frankel,bedok,8998500.0,2014,freehold,"2, 3, 4, 5, 6, 7, 8, 9, 10 br"
53,53,hdb flat for sale in 9 joo seng road,macpherson / potong pasir (d13),9 joo seng road,hdb,3,2,1001,unspecified,1.3349609375,103.875,joo seng,toa payoh,798000.0,2017,99-year leasehold,"2, 3 br"
54,54,3 bed condo for sale in the watergardens at canberra,33 canberra drive,the watergardens at canberra,condo,3,2,958,unspecified,1.4404296875,103.8125,sembawang springs,sembawang,1459500.0,2026,99-year leasehold,"2, 3, 4, 5 br"
55,55,3 bed ec for sale in the canopy,79 yishun avenue 11,the canopy,executive condo,3,3,1184,unspecified,1.4248046875,103.875,yishun east,yishun,1257900.0,2014,99-year leasehold,"studio, 2, 3, 4 br"
56,56,4 bed condo for sale in klimt cairnhill,71 cairnhill road,klimt cairnhill,condo,4,4,2368,unspecified,1.310546875,103.8125,newton circus,newton,10963400.0,2025,freehold,"2, 3, 4, 5, 6, 7 br"
57,57,2 bed ec for sale in the vales,79 anchorvale crescent,the vales,executive condo,2,2,764,unspecified,1.3974609375,103.875,anchorvale,sengkang,1155000.0,2017,99-year leasehold,"2, 3, 4, 5 br"
58,58,2 bed condo for sale in leedon green,32 leedon heights,leedon green,condo,2,2,667,partial,1.3125,103.8125,farrer court,bukit timah,1772400.0,2023,freehold,"studio, 1, 2, 3, 4 br"
59,59,3 bed condo for sale in piccadilly grand / piccadilly galleria,1 northumberland road,piccadilly grand / piccadilly galleria,condo,3,2,1076,partial,1.3115234375,103.875,kampong java,kallang,2415000.0,2026,99-year leasehold,"studio, 1, 2, 3, 4, 5 br"
60,60,5 bed house for sale in toh estate,toh avenue,toh estate,semi-detached house,5,5,4925,unspecified,1.3310546875,103.75,toh tuck,clementi,6016500.0,2013,freehold,"1, 2, 4, 5, 6, 7 br"
61,61,hdb flat for sale in 1 cantonment road,chinatown / tanjong pagar (d2),the pinnacle @ duxton,hdb,3,2,1140,unspecified,1.27734375,103.8125,chinatown,outram,1260000.0,2011,99-year leasehold,"studio, 1, 2, 3, 4 br"
62,62,5 bed condo for sale in white house residences,67 stevens road,white house residences,condo,5,3,5985,unspecified,1.318359375,103.8125,nassim,tanglin,14184200.0,2013,freehold,"4, 5 br"
63,63,1 bed condo for sale in riviere,1 jiak kim street,riviere,condo,1,1,560,unfurnished,1.302734375,103.875,tanjong rhu,kallang,1761900.0,2023,99-year leasehold,"1, 2, 3, 4, 5 br"
64,64,2 bed condo for sale in grange 1866,74 grange road,grange 1866,condo,2,1,710,partial,1.3037109375,103.8125,chatsworth,tanglin,1937000.0,2024,freehold,"1, 2 br"
65,65,hdb flat for sale in 688b woodlands drive 75,admiralty / woodlands (d25),hdb-woodlands,hdb,3,2,969,unspecified,1.447265625,103.75,north coast,woodlands,525000.0,2004,99-year leasehold,"1, 2, 3, 4, 5, 6, 7 br"
66,66,5 bed condo for sale in forett @ bukit timah,32 toh tuck road,forett @ bukit timah,condo,5,4,1884,unfurnished,1.3388671875,103.75,bukit batok south,bukit batok,4438400.0,2024,freehold,"studio, 1, 2, 3, 4, 5 br"
67,67,hdb flat for sale in 463 crawford lane,beach road / bugis / rochor (d7),crawford court,hdb,2,2,645,unfurnished,1.3046875,103.875,crawford,kallang,446200.0,1982,99-year leasehold,"1, 2, 3 br"
68,68,hdb flat for sale in 10a bendemeer road,balestier / toa payoh (d12),bendemeer light,hdb,3,2,1001,partial,1.3154296875,103.875,bendemeer,kallang,984900.0,2017,99-year leasehold,"2, 3 br"
69,69,1 bed condo for sale in pollen & bleu,15 farrer drive,pollen & bleu,condo,1,1,549,unspecified,1.313259,103.806622,holland road,bukit timah,1470000.0,2017,99-year leasehold,"1, 2, 3, 4, 5 br"
70,70,hdb flat for sale in 546 ang mo kio avenue 10,ang mo kio / bishan / thomson (d20),cheng san green,hdb,3,2,990,unspecified,1.3740234375,103.875,cheng san,ang mo kio,521800.0,1981,99-year leasehold,"2, 3, 4, 5 br"
71,71,5 bed house for sale in charlton park,surin road,charlton park,terraced house,5,6,3966,unspecified,1.35546875,103.875,lorong ah soo,hougang,5019000.0,2008,freehold,"4, 5, 6 br"
72,72,4 bed condo for sale in zyanya,8 lorong 25a geylang,zyanya,condo,4,3,1195,unspecified,1.3134765625,103.875,aljunied,geylang,2082900.0,2025,freehold,"1, 2, 3, 4 br"
73,73,3 bed condo for sale in one bernam,1 bernam street,one bernam,condo,3,2,1421,unspecified,1.2744140625,103.8125,anson,downtown core,3514400.0,2026,99-year leasehold,"studio, 1, 2, 3, 4, 5 br"
74,74,3 bed condo for sale in rivergate,93 robertson quay,rivergate,condo,3,3,1603,unspecified,1.2919921875,103.8125,robertson quay,singapore river,4376200.0,2009,freehold,"2, 3, 4 br"
75,75,hdb flat for sale in 426 bukit batok west avenue 2,bukit batok / bukit panjang / choa chu kang (d23),hdb-bukit batok,hdb,3,2,1291,unspecified,1.3623046875,103.75,hong kah north,bukit batok,564900.0,1987,99-year leasehold,"studio, 1, 2, 3, 4, 5, 6 br"
76,76,4 bed ec for sale in lush acres,7 fernvale close,lush acres,executive condo,4,4,1367,unspecified,1.39453125,103.875,fernvale,sengkang,1837500.0,2016,99-year leasehold,"3, 4, 5 br"
77,77,2 bed condo for sale in parc rosewood,83 rosewood drive,parc rosewood,condo,2,1,752,unspecified,1.427734375,103.8125,woodgrove,woodlands,924000.0,2014,99-year leasehold,"1, 2, 3, 4, 5 br"
78,78,3 bed condo for sale in hyll on holland,97 holland road,hyll on holland,condo,3,2,936,unspecified,1.310546875,103.8125,leedon park,bukit timah,2520300.0,2025,freehold,"studio, 1, 2, 3, 4 br"
79,79,4 bed condo for sale in the gazania,5 how sun drive,the gazania,condo,4,4,1281,unspecified,1.3447265625,103.875,upper paya lebar,serangoon,2733200.0,2022,freehold,"studio, 1, 2, 3, 4, 5 br"
80,80,hdb flat for sale in 2d geylang serai,eunos / geylang / paya lebar (d14),sri geylang serai,hdb,3,2,1022,partial,1.3173828125,103.875,geylang east,geylang,892500.0,2011,99-year leasehold,"3, 4 br"
81,81,hdb flat for sale in 357 admiralty drive,sembawang / yishun (d27),sun bliss,hdb,3,2,1011,unspecified,1.4501953125,103.8125,sembawang central,sembawang,545000.0,2001,99-year leasehold,"3, 4 br"
82,82,4 bed condo for sale in van holland,188 holland road,van holland,condo,4,3,1345,partial,1.30859375,103.8125,ridout,tanglin,3990000.0,2023,freehold,"1, 2, 3, 4, 6 br"
83,83,hdb flat for sale in 403 woodlands street 41,admiralty / woodlands (d25),hdb-woodlands,hdb,5,4,1905,unspecified,1.4287109375,103.75,woodgrove,woodlands,1155000.0,2004,99-year leasehold,"1, 2, 3, 4, 5, 6, 7 br"
84,84,4 bed ec for sale in signature at yishun,21 yishun street 51,signature at yishun,executive condo,4,3,1185,partial,1.4169921875,103.875,lower seletar,yishun,1604400.0,2017,99-year leasehold,"studio, 2, 3, 4 br"
85,85,hdb flat for sale in 338 ubi avenue 1,eunos / geylang / paya lebar (d14),kampong ubi view,hdb,3,2,1119,unspecified,1.326171875,103.875,kampong ubi,geylang,556500.0,1986,99-year leasehold,"2, 3, 4, 6 br"
86,86,hdb flat for sale in 139 marsiling road,admiralty / woodlands (d25),hdb-woodlands,hdb,4,3,1825,unspecified,1.4375,103.75,woodlands west,woodlands,934500.0,2004,99-year leasehold,"1, 2, 3, 4, 5, 6, 7 br"
87,87,hdb flat for sale in 168a punggol east,hougang / punggol / sengkang (d19),the sundial,hdb,3,2,990,unspecified,1.3984375,103.9375,waterway east,punggol,609000.0,2009,99-year leasehold,3 br
88,88,5 bed condo for sale in the florence residences,83 hougang avenue 2,the florence residences,condo,5,4,1679,unspecified,1.3671875,103.875,kovan,hougang,2536300.0,2023,99-year leasehold,"1, 2, 3, 4, 5 br"
89,89,7 bed house for sale in westlake gardens,westlake avenue,westlake gardens,semi-detached house,7,9,4350,unspecified,1.3447265625,103.8125,upper thomson,bishan,11340000.0,2000,freehold,"4, 5, 6, 7, 8 br"
90,90,3 bed condo for sale in royal hallmark,1 haig lane,royal hallmark,condo,3,2,797,unfurnished,1.30859375,103.875,katong,marine parade,1827000.0,2025,freehold,"3, 4, 5 br"
91,91,4 bed condo for sale in royalgreen,2a anamalai avenue,royalgreen,condo,4,4,1259,unspecified,1.330078125,103.8125,holland road,bukit timah,3879300.0,2021,freehold,"2, 3, 4, 5 br"
92,92,hdb flat for sale in 12 farrer park road,farrer park / serangoon rd (d8),farrer park view,hdb,3,2,969,unspecified,1.3125,103.875,kampong java,kallang,829500.0,2004,99-year leasehold,"1, 2, 3, 4, 5 br"
93,93,3 bed condo for sale in symphony suites,15 yishun close,symphony suites,condo,3,2,786,partial,1.4345703125,103.875,yishun east,yishun,1050000.0,2019,99-year leasehold,"1, 2, 3, 4, 5 br"
94,94,3 bed condo for sale in royalgreen,2 anamalai avenue,royalgreen,condo,3,2,990,unspecified,1.330078125,103.8125,holland road,bukit timah,2845500.0,2021,freehold,"2, 3, 4, 5 br"
95,95,4 bed condo for sale in the watergardens at canberra,57 canberra drive,the watergardens at canberra,condo,4,4,1302,unspecified,1.4404296875,103.8125,sembawang springs,sembawang,1953000.0,2026,99-year leasehold,"2, 3, 4, 5 br"
96,96,2 bed condo for sale in sky vue,3 bishan street 15,sky vue,condo,2,2,678,partial,1.3525390625,103.875,bishan east,bishan,1344000.0,2016,99-year leasehold,"1, 2, 3, 4, 5 br"
97,97,hdb flat for sale in 109b depot road,harbourfront / telok blangah (d4),depot heights,hdb,4,2,1248,unspecified,1.28125,103.8125,depot road,bukit merah,766500.0,2006,99-year leasehold,"2, 3, 4 br"
98,98,5 bed house for sale in sembawang park,jalan mata ayer,sembawang park,semi-detached house,5,7,7000,unspecified,1.4609375,103.8125,sembawang straits,sembawang,6594000.0,2007,freehold,"4, 5, 6 br"
99,99,hdb flat for sale in 676c yishun ring road,sembawang / yishun (d27),park grove @ yishun,hdb,3,2,1216,unspecified,1.423828125,103.875,yishun east,yishun,724500.0,2017,99-year leasehold,"1, 3 br"
100,100,3 bed ec for sale in the brownstone,160 canberra drive,the brownstone,executive condo,3,2,936,unspecified,1.4453125,103.8125,sembawang springs,sembawang,1344000.0,2017,99-year leasehold,"studio, 1, 2, 3, 4 br"
101,101,2 bed condo for sale in rv residences,467 river valley road,rv residences,condo,2,2,678,unspecified,1.2939453125,103.8125,chatsworth,tanglin,1669500.0,2014,999-year leasehold,"studio, 1, 2, 3, 4 br"
102,102,3 bed ec for sale in north gaia,39 yishun close,north gaia,executive condo,3,2,968,unspecified,1.4345703125,103.875,yishun east,yishun,1197000.0,2027,99-year leasehold,"2, 3, 4, 5 br"
103,103,1 bed condo for sale in jadescape,16 shunfu road,jadescape,condo,1,1,527,partial,1.3525390625,103.8125,upper thomson,bishan,1037400.0,2023,99-year leasehold,"1, 2, 3, 4, 5 br"
104,104,3 bed condo for sale in ki residences at brookvale,16 brookvale drive,ki residences at brookvale,condo,3,2,1152,unspecified,1.3310546875,103.75,sunset way,clementi,2368800.0,2024,999-year leasehold,"studio, 2, 3, 4, 5 br"
105,105,2 bed condo for sale in the bayshore,30 bayshore road,the bayshore,condo,2,2,947,unspecified,1.3125,103.9375,bayshore,bedok,1154000.0,1996,99-year leasehold,"2, 3, 4, 5, 6 br"
106,106,2 bed condo for sale in the gazania,5 how sun drive,the gazania,condo,2,1,635,unspecified,1.3447265625,103.875,upper paya lebar,serangoon,1567600.0,2022,freehold,"studio, 1, 2, 3, 4, 5 br"
107,107,2 bed condo for sale in fyve derbyshire,5 derbyshire road,fyve derbyshire,condo,2,2,657,unspecified,1.3154296875,103.875,moulmein,novena,1785000.0,2022,freehold,"1, 2, 3, 4 br"
108,108,hdb flat for sale in 103 pasir ris street 12,pasir ris / tampines (d18),hdb-pasir ris,hdb,3,2,1377,unspecified,1.3681640625,103.9375,pasir ris drive,pasir ris,701400.0,1989,99-year leasehold,"studio, 1, 2, 3, 4, 5, 6 br"
109,109,3 bed condo for sale in 3 orchard by-the-park,3 orchard boulevard,3 orchard by-the-park,condo,3,3,1862,partial,1.3037109375,103.8125,tanglin,orchard,7039200.0,2017,freehold,"2, 3, 4, 5, 6 br"
110,110,hdb flat for sale in 292b compassvale street,hougang / punggol / sengkang (d19),compassvale lodge,hdb,3,2,1184,unspecified,1.3955078125,103.875,sengkang town centre,sengkang,630000.0,2002,99-year leasehold,"3, 4 br"
111,111,3 bed condo for sale in the reef at king's dock,2 harbourfront avenue,the reef at king's dock,condo,3,2,1076,unspecified,1.265625,103.8125,maritime square,bukit merah,2815000.0,2025,99-year leasehold,"studio, 1, 2, 3, 4, 5, 6, 7, 10 br"
112,112,3 bed ec for sale in north gaia,45 yishun close,north gaia,executive condo,3,3,1076,unspecified,1.4345703125,103.875,yishun east,yishun,1398400.0,2027,99-year leasehold,"2, 3, 4, 5 br"
113,113,1 bed condo for sale in riz haven,193a jalan loyang besar,riz haven,condo,1,1,452,partial,1.3798828125,103.9375,pasir ris park,pasir ris,656200.0,2011,999-year leasehold,"1, 2, 3 br"
114,114,hdb flat for sale in 105 aljunied crescent,eunos / geylang / paya lebar (d14),geylang east,hdb,3,2,1302,unspecified,1.3193359375,103.875,aljunied,geylang,795900.0,1979,99-year leasehold,"2, 3, 4, 5 br"
115,115,hdb flat for sale in 117a jalan tenteram,balestier / toa payoh (d12),tenteram peak,hdb,2,2,721,unfurnished,1.328125,103.875,balestier,novena,586800.0,2016,99-year leasehold,"2, 3, 4 br"
116,116,2 bed condo for sale in mori,223 guillemard road,mori,condo,2,2,710,unspecified,1.31640625,103.875,lavender,kallang,1361800.0,2026,freehold,"1, 2, 3, 4 br"
117,117,3 bed condo for sale in ki residences at brookvale,16 brookvale drive,ki residences at brookvale,condo,3,2,936,unspecified,1.3310546875,103.75,sunset way,clementi,1870000.0,2024,999-year leasehold,"studio, 2, 3, 4, 5 br"
118,118,hdb flat for sale in 121a canberra street,sembawang / yishun (d27),eastbank @ canberra,hdb,3,2,1001,unspecified,1.447265625,103.8125,sembawang east,sembawang,575400.0,2016,99-year leasehold,3 br
119,119,3 bed condo for sale in the arden,4 phoenix road,the arden,condo,3,2,1012,partial,1.376953125,103.75,gombak,bukit batok,1575000.0,2025,99-year leasehold,"2, 3, 4, 5 br"
120,120,3 bed condo for sale in haig ten,1 haigsville drive,haig ten,condo,3,3,1475,unspecified,1.310546875,103.875,geylang east,geylang,3150000.0,2002,freehold,3 br
121,121,6 bed house for sale in pinewood terrace,pinewood grove,pinewood terrace,terraced house,6,6,3863,unspecified,1.4287109375,103.75,woodgrove,woodlands,2940000.0,1998,99-year leasehold,"5, 6 br"
122,122,hdb flat for sale in 417 clementi avenue 1,buona vista / west coast / clementi (d5),casa clementi,hdb,3,2,1033,fully,1.310546875,103.75,clementi woods,clementi,912300.0,2013,99-year leasehold,"1, 2, 3, 5 br"
123,123,1 bed condo for sale in robin suites,25 robin road,robin suites,condo,1,1,463,partial,1.3173828125,103.8125,nassim,tanglin,1344000.0,2015,freehold,"1, 2, 3 br"
124,124,3 bed condo for sale in canninghill piers / canninghill square,5 clarke quay,canninghill piers / canninghill square,condo,3,2,1259,unspecified,1.2919921875,103.875,clarke quay,singapore river,3771600.0,2026,99-year leasehold,"studio, 1, 2, 3, 4, 5, 6 br"
125,125,hdb flat for sale in 436c fernvale road,seletar / yio chu kang (d28),fernvale grove,hdb,3,2,1033,unspecified,1.392578125,103.875,fernvale,sengkang,630000.0,2010,99-year leasehold,"1, 3 br"
126,126,2 bed condo for sale in the quinn,11 bartley road,the quinn,condo,2,1,560,unspecified,1.34375,103.875,upper paya lebar,serangoon,1029000.0,2016,freehold,"1, 2, 3, 4 br"
127,127,hdb flat for sale in 217c sumang walk,hougang / punggol / sengkang (d19),matilda portico,hdb,3,2,1205,unspecified,1.40234375,103.875,matilda,punggol,648900.0,2017,99-year leasehold,"2, 3, 4, 5 br"
128,128,3 bed condo for sale in oue twin peaks,33 leonie hill road,oue twin peaks,condo,3,2,1399,partial,1.2998046875,103.8125,leonie hill,river valley,4357500.0,2014,99-year leasehold,"studio, 1, 2, 3, 5 br"
129,129,5 bed house for sale in hillcrest villa,hillcrest road,hillcrest villa,landed,5,4,3090,partial,1.3291015625,103.8125,hillcrest,bukit timah,4179000.0,2009,99-year leasehold,"3, 4, 5, 6 br"
130,130,2 bed condo for sale in ki residences at brookvale,2 brookvale drive,ki residences at brookvale,condo,2,2,872,unspecified,1.3310546875,103.75,sunset way,clementi,1648500.0,2024,999-year leasehold,"studio, 2, 3, 4, 5 br"
131,131,3 bed condo for sale in fourth avenue residences,12 fourth avenue,fourth avenue residences,condo,3,3,1119,unfurnished,1.3271484375,103.8125,coronation road,bukit timah,2940300.0,2022,99-year leasehold,"studio, 1, 2, 3, 4, 5 br"
132,132,1 bed condo for sale in the garden residences,1 serangoon north view,the garden residences,condo,1,1,517,unspecified,1.3662109375,103.875,serangoon garden,serangoon,965000.0,2021,99-year leasehold,"studio, 1, 2, 3, 4, 5 br"
133,133,3 bed ec for sale in the floravale,238 westwood avenue,the floravale,executive condo,3,3,1313,unspecified,1.3515625,103.6875,yunnan,jurong west,1260000.0,2000,99-year leasehold,"3, 4 br"
134,134,hdb flat for sale in 310a anchorvale road,hougang / punggol / sengkang (d19),anchorvale vista,hdb,4,2,1356,unspecified,1.3955078125,103.875,anchorvale,sengkang,813800.0,2003,99-year leasehold,"3, 4, 6 br"
135,135,hdb flat for sale in 30 ghim moh link,tanglin / holland (d10),ghim moh edge,hdb,3,2,1001,unspecified,1.30859375,103.8125,ghim moh,queenstown,932400.0,2017,99-year leasehold,"2, 3 br"
136,136,hdb flat for sale in 1 marine terrace,east coast / marine parade (d15),marine terrace walk,hdb,3,2,1290,unspecified,1.3046875,103.9375,marine parade,marine parade,819000.0,1975,99-year leasehold,"2, 3, 4, 5 br"
137,137,5 bed house for sale in sentosa cove,ocean drive,sentosa cove,bungalow,5,5,6000,unspecified,1.248046875,103.8125,sentosa,southern islands,22890000.0,2010,99-year leasehold,"2, 3, 4, 5, 6, 7, 8, 10 br"
138,138,hdb flat for sale in 255 kim keat avenue,balestier / toa payoh (d12),hdb-toa payoh,hdb,3,2,1109,unspecified,1.33203125,103.875,kim keat,toa payoh,651000.0,1988,99-year leasehold,"studio, 1, 2, 3, 4, 5 br"
139,139,3 bed condo for sale in sloane residences,17 balmoral road,sloane residences,condo,3,3,1249,unspecified,1.3154296875,103.8125,nassim,tanglin,3779000.0,2022,freehold,"2, 3, 4, 7 br"
140,140,hdb flat for sale in 417a fernvale link,seletar / yio chu kang (d28),fernvale riverwalk,hdb,3,2,1011,unspecified,1.3916015625,103.875,fernvale,sengkang,672000.0,2018,99-year leasehold,"1, 2, 3, 4 br"
141,141,3 bed condo for sale in the santorini,27 tampines street 86,the santorini,condo,3,3,915,unspecified,1.3525390625,103.9375,tampines west,tampines,1260000.0,2018,99-year leasehold,"studio, 1, 2, 3, 4 br"
142,142,3 bed ec for sale in lake life,8 tao ching road,lake life,executive condo,3,2,1324,partial,1.33203125,103.75,taman jurong,jurong west,1428000.0,2016,99-year leasehold,"2, 3, 4, 5 br"
143,143,2 bed condo for sale in sims urban oasis,18 sims drive,sims urban oasis,condo,2,1,797,unspecified,1.3193359375,103.875,aljunied,geylang,1281000.0,2017,99-year leasehold,"studio, 1, 2, 3, 4, 5 br"
144,144,2 bed ec for sale in riverparc residence,98 punggol drive,riverparc residence,executive condo,2,2,829,unspecified,1.3974609375,103.9375,waterway east,punggol,1047900.0,2014,99-year leasehold,"studio, 1, 2, 3, 4 br"
145,145,3 bed condo for sale in the woodleigh residences / the woodleigh mall,19 bidadari park drive,the woodleigh residences / the woodleigh mall,condo,3,2,958,unspecified,1.3388671875,103.875,bidadari,toa payoh,1998200.0,2024,99-year leasehold,"1, 2, 3, 4 br"
146,146,4 bed condo for sale in klimt cairnhill,71 cairnhill road,klimt cairnhill,condo,4,5,2368,unspecified,1.310546875,103.8125,newton circus,newton,6195000.0,2025,freehold,"2, 3, 4, 5, 6, 7 br"
147,147,2 bed condo for sale in avenue south residence,1 silat avenue,avenue south residence,condo,2,1,657,unspecified,1.3046875,103.75,dover,queenstown,1633800.0,2023,99-year leasehold,"studio, 1, 2, 3, 4 br"
148,148,5 bed condo for sale in clavon,4 clementi avenue 1,clavon,condo,5,4,1690,unspecified,1.3076171875,103.75,clementi woods,clementi,3059700.0,2025,99-year leasehold,"1, 2, 3, 4, 5 br"
149,149,hdb flat for sale in 244 bukit batok east avenue 5,bukit batok / bukit panjang / choa chu kang (d23),gombak view,hdb,3,2,1065,unfurnished,1.349609375,103.75,bukit batok east,bukit batok,546000.0,1985,99-year leasehold,"studio, 2, 3, 4 br"
150,150,5 bed house for sale in bedok park,limau garden,bedok park,semi-detached house,5,3,3400,unspecified,1.306640625,103.9375,siglap,bedok,6825000.0,1970,freehold,"5, 6, 10 br"
151,151,3 bed ec for sale in lake life,8 tao ching road,lake life,executive condo,3,2,1087,partial,1.33203125,103.75,taman jurong,jurong west,1554000.0,2016,99-year leasehold,"2, 3, 4, 5 br"
152,152,hdb flat for sale in 27 ghim moh link,tanglin / holland (d10),ghim moh valley,hdb,3,2,1001,partial,1.30859375,103.8125,ghim moh,queenstown,924000.0,2013,99-year leasehold,"studio, 1, 2, 3, 4 br"
153,153,3 bed condo for sale in pasir ris 8 / pasir ris mall,8 pasir ris drive 8,pasir ris 8 / pasir ris mall,condo,3,3,1302,partial,1.37109375,103.9375,pasir ris central,pasir ris,2310000.0,2026,99-year leasehold,"1, 2, 3, 4, 5 br"
154,154,hdb flat for sale in 471a fernvale street,seletar / yio chu kang (d28),fernvale rivergrove,hdb,3,2,1001,unspecified,1.3984375,103.875,fernvale,sengkang,609000.0,2016,99-year leasehold,"2, 3, 4, 5 br"
155,155,hdb flat for sale in 835 tampines street 83,pasir ris / tampines (d18),tampines palmwalk,hdb,3,2,689,unspecified,1.3505859375,103.9375,tampines west,tampines,409500.0,1986,99-year leasehold,"1, 2, 3, 4 br"
156,156,5 bed ec for sale in the vales,87 anchorvale crescent,the vales,executive condo,5,4,1690,unspecified,1.3974609375,103.875,anchorvale,sengkang,2612400.0,2017,99-year leasehold,"2, 3, 4, 5 br"
157,157,2 bed condo for sale in kopar at newton,8 makeway avenue,kopar at newton,condo,2,2,689,unspecified,1.3125,103.8125,moulmein,novena,1785000.0,2023,99-year leasehold,"studio, 1, 2, 3, 4, 5, 6 br"
158,158,hdb flat for sale in 558 ang mo kio avenue 10,ang mo kio / bishan / thomson (d20),hdb-ang mo kio,hdb,2,2,882,partial,1.37109375,103.875,cheng san,ang mo kio,441000.0,1980,99-year leasehold,"studio, 1, 2, 3, 4 br"
159,159,hdb flat for sale in 111 clementi street 13,buona vista / west coast / clementi (d5),sunset way residence,hdb,3,3,1582,unspecified,1.3232421875,103.75,sunset way,clementi,1134000.0,1985,99-year leasehold,"1, 2, 3, 4, 5, 6 br"
160,160,hdb flat for sale in 4 haig road,east coast / marine parade (d15),haig view,hdb,2,2,700,unspecified,1.3125,103.875,geylang east,geylang,399000.0,1976,99-year leasehold,"1, 2, 3, 4 br"
161,161,5 bed house for sale in ming park,jalan binchang,ming park,semi-detached house,5,6,2750,unspecified,1.361328125,103.875,chong boon,ang mo kio,7140000.0,1978,freehold,"4, 5, 6 br"
162,162,1 bed condo for sale in riviere,3 jiak kim street,riviere,condo,1,1,560,partial,1.302734375,103.875,tanjong rhu,kallang,1680000.0,2023,99-year leasehold,"1, 2, 3, 4, 5 br"
163,163,3 bed condo for sale in mont botanik residence,2l jalan remaja,mont botanik residence,condo,3,2,947,unspecified,1.357421875,103.75,hillview,bukit batok,1773300.0,2022,freehold,"2, 3, 4 br"
164,164,5 bed condo for sale in amber park,14 amber gardens,amber park,condo,5,4,2142,unfurnished,1.30078125,103.875,marine parade,marine parade,5953500.0,2024,freehold,"1, 2, 3, 4, 5, 6, 7 br"
165,165,hdb flat for sale in 8 haig road,east coast / marine parade (d15),haig view,hdb,3,2,989,unspecified,1.3134765625,103.875,geylang east,geylang,607800.0,1976,99-year leasehold,"1, 2, 3, 4 br"
166,166,1 bed condo for sale in the avenir,8 river valley close,the avenir,condo,1,1,527,unfurnished,1.2939453125,103.8125,institution hill,river valley,1811200.0,2025,freehold,"studio, 1, 2, 3, 4, 5 br"
167,167,1 bed condo for sale in 35 gilstead,35 gilstead road,35 gilstead,condo,1,1,484,partial,1.3173828125,103.8125,moulmein,novena,1344000.0,2022,freehold,"1, 2, 3, 4 br"
168,168,hdb flat for sale in 813b yishun ring road,sembawang / yishun (d27),khatib court,hdb,2,2,721,unspecified,1.41796875,103.8125,khatib,yishun,512400.0,2018,99-year leasehold,2 br
169,169,2 bed condo for sale in ki residences at brookvale,16 brookvale drive,ki residences at brookvale,condo,2,2,700,fully,1.3310546875,103.75,sunset way,clementi,1362900.0,2024,999-year leasehold,"studio, 2, 3, 4, 5 br"
170,170,3 bed condo for sale in verticus,3 jalan kemaman,verticus,condo,3,2,1152,partial,1.326171875,103.875,balestier,novena,2625000.0,2024,freehold,"1, 2, 3, 4 br"
171,171,hdb flat for sale in 311d anchorvale lane,hougang / punggol / sengkang (d19),anchorvale vista,hdb,3,2,1216,unspecified,1.3916015625,103.875,anchorvale,sengkang,682500.0,2003,99-year leasehold,"3, 4, 6 br"
172,172,hdb flat for sale in 541 hougang avenue 8,hougang / punggol / sengkang (d19),hdb-hougang,hdb,3,2,1119,unfurnished,1.3779296875,103.875,hougang west,hougang,577500.0,1989,99-year leasehold,"studio, 1, 2, 3, 4, 5, 6 br"
173,173,5 bed condo for sale in amber park,18 amber gardens,amber park,condo,5,4,2142,unspecified,1.30078125,103.875,marine parade,marine parade,5477800.0,2024,freehold,"1, 2, 3, 4, 5, 6, 7 br"
174,174,hdb flat for sale in 677d punggol drive,hougang / punggol / sengkang (d19),waterway brooks,hdb,3,2,1001,unspecified,1.40625,103.9375,waterway east,punggol,699300.0,2016,99-year leasehold,"2, 3, 4, 5 br"
175,175,1 bed condo for sale in fourth avenue residences,12 fourth avenue,fourth avenue residences,condo,1,1,474,unspecified,1.3271484375,103.8125,coronation road,bukit timah,1360100.0,2022,99-year leasehold,"studio, 1, 2, 3, 4, 5 br"
176,176,3 bed condo for sale in the alps residences,109 tampines street 86,the alps residences,condo,3,3,1066,unspecified,1.35546875,103.9375,tampines west,tampines,1510900.0,2020,99-year leasehold,"1, 2, 3, 4 br"
177,177,5 bed house for sale in shangri-la park,shangri-la walk,shangri-la park,semi-detached house,5,5,2600,unspecified,1.37109375,103.8125,sembawang hills,ang mo kio,5964000.0,1988,freehold,"4, 5, 6 br"
178,178,3 bed condo for sale in fourth avenue residences,2 fourth avenue,fourth avenue residences,condo,3,3,1119,unspecified,1.3271484375,103.8125,coronation road,bukit timah,2831800.0,2022,99-year leasehold,"studio, 1, 2, 3, 4, 5 br"
179,179,hdb flat for sale in 130a canberra crescent,sembawang / yishun (d27),eastcrown @ canberra,hdb,3,2,1001,unspecified,1.4443359375,103.8125,sembawang east,sembawang,656200.0,2017,99-year leasehold,"1, 2, 3 br"
180,180,5 bed condo for sale in kopar at newton,4 makeway avenue,kopar at newton,condo,5,5,1819,unspecified,1.3125,103.8125,moulmein,novena,4519200.0,2023,99-year leasehold,"studio, 1, 2, 3, 4, 5, 6 br"
181,181,4 bed ec for sale in westwood residences,188 westwood avenue,westwood residences,executive condo,4,3,1153,fully,1.3525390625,103.6875,yunnan,jurong west,1048800.0,2017,99-year leasehold,"2, 3, 4 br"
182,182,3 bed condo for sale in 1953,1 tessensohn road,1953,condo,3,3,1152,unspecified,1.3164313,103.8575321,balestier,novena,2292200.0,2023,freehold,"studio, 1, 2, 3, 4, 5, 6 br"
183,183,hdb flat for sale in 248 bukit batok east avenue 5,bukit batok / bukit panjang / choa chu kang (d23),gombak view,hdb,2,2,785,unspecified,1.3505859375,103.75,bukit batok east,bukit batok,420000.0,1985,99-year leasehold,"studio, 2, 3, 4 br"
184,184,6 bed house for sale in pearl island,pearl island,pearl island,bungalow,6,7,7432,unspecified,1.2412109375,103.8125,sentosa,southern islands,16800000.0,2016,99-year leasehold,"5, 6, 7 br"
185,185,3 bed condo for sale in meyer mansion,79 meyer road,meyer mansion,condo,3,4,1399,unspecified,1.296875,103.875,mountbatten,marine parade,3913200.0,2024,freehold,"studio, 1, 2, 3, 4, 5 br"
186,186,4 bed condo for sale in verdale,10 de souza avenue,verdale,condo,4,4,1410,unspecified,1.345703125,103.75,anak bukit,bukit timah,2752300.0,2024,99-year leasehold,"1, 2, 3, 4, 5 br"
187,187,3 bed condo for sale in the line @ tanjong rhu,6 tanjong rhu road,the line @ tanjong rhu,condo,3,2,1184,unspecified,1.298828125,103.875,tanjong rhu,kallang,3066000.0,2016,freehold,"studio, 1, 2, 3, 4, 5 br"
188,188,1 bed condo for sale in the sail @ marina bay,4 marina boulevard,the sail @ marina bay,condo,1,1,689,fully,1.28125,103.875,central subzone,downtown core,1491000.0,2008,99-year leasehold,"studio, 1, 2, 3, 4, 5, 10 br"
189,189,hdb flat for sale in 223 serangoon avenue 4,hougang / punggol / sengkang (d19),boundary ville,hdb,3,2,990,unspecified,1.357421875,103.875,serangoon garden,serangoon,577500.0,1984,99-year leasehold,"2, 3 br"
190,190,hdb flat for sale in 609 yishun street 61,sembawang / yishun (d27),nee soon central meadows,hdb,3,2,1119,unspecified,1.4208984375,103.8125,yishun south,yishun,522900.0,1986,99-year leasehold,"3, 4, 5 br"
191,191,3 bed condo for sale in perfect ten,321 bukit timah road,perfect ten,condo,3,2,1227,partial,1.3173828125,103.8125,nassim,tanglin,3570000.0,2025,freehold,"studio, 2, 3, 4 br"
192,192,2 bed condo for sale in the florence residences,83 hougang avenue 2,the florence residences,condo,2,2,646,partial,1.3671875,103.875,kovan,hougang,1291500.0,2023,99-year leasehold,"1, 2, 3, 4, 5 br"
193,193,1 bed condo for sale in parc emily,15 mount emily road,parc emily,condo,1,1,592,fully,1.3037109375,103.875,mount emily,rochor,1365000.0,2008,freehold,"studio, 1, 2, 3, 5 br"
194,194,hdb flat for sale in 807b chai chee road,bedok / upper east coast (d16),ping yi greens,hdb,2,2,732,unspecified,1.3271484375,103.9375,kembangan,bedok,577500.0,2016,99-year leasehold,"1, 2, 3, 5 br"
195,195,2 bed condo for sale in meyer mansion,79 meyer road,meyer mansion,condo,2,2,689,unspecified,1.296875,103.875,mountbatten,marine parade,2119300.0,2024,freehold,"studio, 1, 2, 3, 4, 5 br"
196,196,hdb flat for sale in 232 jurong east street 21,boon lay / jurong / tuas (d22),hdb-jurong east,hdb,2,2,721,unspecified,1.33984375,103.75,yuhua east,jurong east,420000.0,1982,99-year leasehold,"studio, 1, 2, 3, 4, 5, 6 br"
197,197,3 bed condo for sale in the line @ tanjong rhu,6 tanjong rhu road,the line @ tanjong rhu,condo,3,2,1378,unfurnished,1.298828125,103.875,tanjong rhu,kallang,3849300.0,2016,freehold,"studio, 1, 2, 3, 4, 5 br"
198,198,hdb flat for sale in 418c fernvale link,seletar / yio chu kang (d28),fernvale riverwalk,hdb,3,2,1011,unspecified,1.390625,103.875,fernvale,sengkang,603800.0,2018,99-year leasehold,"1, 2, 3, 4 br"
199,199,hdb flat for sale in 147 bedok reservoir road,bedok / upper east coast (d16),eunos spring,hdb,3,2,904,unfurnished,1.3349609375,103.9375,kaki bukit,bedok,493500.0,1987,99-year leasehold,"1, 2, 3, 4, 5, 6 br"
200,200,3 bed condo for sale in the landmark,173 chin swee road,the landmark,condo,3,2,1141,partial,1.2861328125,103.8125,pearl's hill,outram,2730000.0,2025,99-year leasehold,"1, 2, 3, 4 br"
201,201,6 bed house for sale in 3bhc,bright hill crescent,3bhc,bungalow,6,4,4000,unfurnished,1.3564453125,103.8125,upper thomson,bishan,12810000.0,2007,freehold,"4, 5, 6 br"
202,202,4 bed ec for sale in parc canberra,19 canberra walk,parc canberra,executive condo,4,3,1152,partial,1.447265625,103.8125,sembawang east,sembawang,1260000.0,2023,99-year leasehold,"2, 3, 4, 5 br"
203,203,4 bed ec for sale in provence residence,35 canberra crescent,provence residence,executive condo,4,3,1399,partial,1.4443359375,103.8125,sembawang east,sembawang,1764000.0,2026,99-year leasehold,"3, 4 br"
204,204,2 bed condo for sale in the avenir,8 river valley close,the avenir,condo,2,2,807,unfurnished,1.2939453125,103.8125,institution hill,river valley,2787800.0,2025,freehold,"studio, 1, 2, 3, 4, 5 br"
205,205,3 bed condo for sale in riviere,1 jiak kim street,riviere,condo,3,2,1141,unspecified,1.302734375,103.875,tanjong rhu,kallang,3360000.0,2023,99-year leasehold,"1, 2, 3, 4, 5 br"
206,206,4 bed condo for sale in atlassia,30 joo chiat place,atlassia,condo,4,3,1227,unspecified,1.3134765625,103.875,geylang east,geylang,2605300.0,2025,freehold,"1, 2, 3, 4, 5, 6, 7 br"
207,207,1 bed condo for sale in suites at orchard,38 handy road,suites at orchard,condo,1,1,560,unspecified,1.30078125,103.875,dhoby ghaut,museum,1365000.0,2014,99-year leasehold,"1, 2, 3 br"
208,208,hdb flat for sale in 985a buangkok crescent,hougang / punggol / sengkang (d19),hdb-hougang,hdb,3,2,914,unspecified,1.380859375,103.875,trafalgar,hougang,519800.0,1989,99-year leasehold,"studio, 1, 2, 3, 4, 5, 6 br"
209,209,2 bed condo for sale in pullman residences newton,18 dunearn road,pullman residences newton,condo,2,2,667,unfurnished,1.31640625,103.8125,moulmein,novena,2047500.0,2023,freehold,"studio, 1, 2, 3, 4, 5 br"
210,210,3 bed condo for sale in riviere,1 jiak kim street,riviere,condo,3,2,1249,unspecified,1.302734375,103.875,tanjong rhu,kallang,3780000.0,2023,99-year leasehold,"1, 2, 3, 4, 5 br"
211,211,3 bed condo for sale in lentor modern,lentor central,lentor modern,condo,3,3,1000,unspecified,1.3857421875,103.8125,tagore,ang mo kio,2415000.0,2026,99-year leasehold,"1, 2, 3, 4 br"
212,212,hdb flat for sale in 771 bedok reservoir view,bedok / upper east coast (d16),longvale,hdb,3,2,1238,unspecified,1.3359375,103.9375,bedok reservoir,bedok,774900.0,2000,99-year leasehold,"1, 3, 4 br"
213,213,3 bed condo for sale in westcove condominium,12 west coast crescent,westcove condominium,condo,3,3,1206,partial,1.2978515625,103.75,clementi west,clementi,1701000.0,1998,99-year leasehold,"2, 3 br"
214,214,3 bed condo for sale in pasir ris 8 / pasir ris mall,12 pasir ris drive 8,pasir ris 8 / pasir ris mall,condo,3,2,1066,partial,1.37109375,103.9375,pasir ris central,pasir ris,1942500.0,2026,99-year leasehold,"1, 2, 3, 4, 5 br"
215,215,1 bed condo for sale in kingsford . hillview peak,103 hillview rise,kingsford . hillview peak,condo,1,1,517,unspecified,1.365234375,103.75,hillview,bukit batok,819000.0,2016,99-year leasehold,"1, 2, 3, 4 br"
216,216,2 bed condo for sale in the nautical,99 jalan sendudok,the nautical,condo,2,2,764,unspecified,1.443359375,103.8125,sembawang springs,sembawang,945000.0,2016,99-year leasehold,"2, 3, 4 br"
217,217,3 bed condo for sale in lentor modern,lentor central,lentor modern,condo,3,2,1044,unspecified,1.3857421875,103.8125,tagore,ang mo kio,2192400.0,2026,99-year leasehold,"1, 2, 3, 4 br"
218,218,4 bed ec for sale in arc at tampines,17 tampines avenue 8,arc at tampines,executive condo,4,3,1876,unfurnished,1.3505859375,103.9375,tampines west,tampines,2100000.0,2014,99-year leasehold,"studio, 1, 2, 3, 4 br"
219,219,2 bed condo for sale in 18 woodsville,18 woodsville close,18 woodsville,condo,2,2,818,partial,1.3291015625,103.875,potong pasir,toa payoh,1575000.0,2015,freehold,"1, 2, 3 br"
220,220,4 bed house for sale in thomson garden estate,upper thomson road,thomson garden estate,terraced house,4,3,1617,unspecified,1.3720703125,103.8125,sembawang hills,ang mo kio,3675000.0,1998,freehold,"studio, 1, 2, 3, 4, 5, 6, 7 br"
221,221,1 bed condo for sale in van holland,186 holland road,van holland,condo,1,1,495,unspecified,1.30859375,103.8125,ridout,tanglin,1527800.0,2023,freehold,"1, 2, 3, 4, 6 br"
222,222,3 bed condo for sale in myra,9 meyappa chettiar road,myra,condo,3,2,872,unspecified,1.3310546875,103.875,potong pasir,toa payoh,2568300.0,2024,freehold,"1, 2, 3, 4 br"
223,223,4 bed condo for sale in the woodleigh residences / the woodleigh mall,23 bidadari park drive,the woodleigh residences / the woodleigh mall,condo,4,3,1281,partial,1.3388671875,103.875,bidadari,toa payoh,3081800.0,2024,99-year leasehold,"1, 2, 3, 4 br"
224,224,1 bed condo for sale in avenue south residence,1 silat avenue,avenue south residence,condo,1,1,527,unspecified,1.3046875,103.75,dover,queenstown,1260000.0,2023,99-year leasehold,"studio, 1, 2, 3, 4 br"
225,225,2 bed condo for sale in stirling residences,21 stirling road,stirling residences,condo,2,2,689,unspecified,1.2919921875,103.8125,mei chin,queenstown,1974000.0,2022,99-year leasehold,"1, 2, 3, 4 br"
226,226,2 bed condo for sale in lake grande,8 jurong lake link,lake grande,condo,2,2,926,unspecified,1.345703125,103.75,hong kah,jurong west,1470000.0,2020,99-year leasehold,"studio, 1, 2, 3, 4, 5 br"
227,227,4 bed condo for sale in parc clematis,6a jalan lempeng,parc clematis,condo,4,4,1464,unfurnished,1.3173828125,103.75,faber,clementi,2929500.0,2023,99-year leasehold,"studio, 1, 2, 3, 4, 5 br"
228,228,2 bed condo for sale in the watergardens at canberra,33 canberra drive,the watergardens at canberra,condo,2,1,678,unfurnished,1.4404296875,103.8125,sembawang springs,sembawang,1080400.0,2026,99-year leasehold,"2, 3, 4, 5 br"
229,229,2 bed condo for sale in mori,223 guillemard road,mori,condo,2,2,710,unfurnished,1.31640625,103.875,lavender,kallang,1502600.0,2026,freehold,"1, 2, 3, 4 br"
230,230,hdb flat for sale in 59 strathmore avenue,alexandra / commonwealth (d3),hdb-queenstown,hdb,3,2,1033,unspecified,1.29296875,103.8125,margaret drive,queenstown,945000.0,1995,99-year leasehold,"studio, 1, 2, 3, 4, 5, 6 br"
231,231,hdb flat for sale in 108a canberra walk,sembawang / yishun (d27),eastlawn @ canberra,hdb,3,2,1216,unspecified,1.4482421875,103.8125,sembawang east,sembawang,771800.0,2017,99-year leasehold,3 br
232,232,4 bed condo for sale in liv @ mb,114d arthur road,liv @ mb,condo,4,4,1581,partial,1.2998046875,103.875,mountbatten,marine parade,3853500.0,2024,99-year leasehold,"studio, 1, 2, 3, 4, 5, 6, 7, 8, 9 br"
233,233,4 bed ec for sale in parc central residences,139 tampines street 86,parc central residences,executive condo,4,3,1206,partial,1.3564453125,103.9375,tampines west,tampines,1470000.0,2025,99-year leasehold,"3, 4, 5 br"
234,234,hdb flat for sale in 78 lorong limau,balestier / toa payoh (d12),whampoa dew,hdb,3,2,1000,unspecified,1.3251953125,103.875,balestier,novena,827400.0,2018,99-year leasehold,3 br
235,235,3 bed ec for sale in provence residence,25 canberra crescent,provence residence,executive condo,3,3,1044,unfurnished,1.4443359375,103.8125,sembawang east,sembawang,1202200.0,2026,99-year leasehold,"3, 4 br"
236,236,3 bed condo for sale in dairy farm residences,12 dairy farm lane,dairy farm residences,condo,3,2,958,unspecified,1.3662109375,103.75,dairy farm,bukit panjang,1607100.0,2024,99-year leasehold,"1, 2, 3, 4, 5 br"
237,237,1 bed condo for sale in meyer mansion,79 meyer road,meyer mansion,condo,1,1,484,partial,1.296875,103.875,mountbatten,marine parade,1485100.0,2024,freehold,"studio, 1, 2, 3, 4, 5 br"
238,238,2 bed condo for sale in pasir ris 8 / pasir ris mall,8 pasir ris drive 8,pasir ris 8 / pasir ris mall,condo,2,1,710,partial,1.37109375,103.9375,pasir ris central,pasir ris,1470000.0,2026,99-year leasehold,"1, 2, 3, 4, 5 br"
239,239,2 bed condo for sale in up @ robertson quay,92 robertson quay,up @ robertson quay,condo,2,2,1119,unspecified,1.291015625,103.8125,robertson quay,singapore river,2814000.0,2016,99-year leasehold,"studio, 1, 2, 3 br"
240,240,hdb flat for sale in 803a keat hong close,bukit batok / bukit panjang / choa chu kang (d23),keat hong pride,hdb,3,2,1001,partial,1.3740234375,103.75,keat hong,choa chu kang,588000.0,2017,99-year leasehold,"2, 3, 4 br"
241,241,4 bed condo for sale in avenue south residence,1 silat avenue,avenue south residence,condo,4,4,1496,partial,1.3046875,103.75,dover,queenstown,3045000.0,2023,99-year leasehold,"studio, 1, 2, 3, 4 br"
242,242,2 bed condo for sale in mackenzie 88,88 mackenzie road,mackenzie 88,condo,2,2,850,unspecified,1.306640625,103.875,mackenzie,rochor,1575000.0,2009,freehold,"1, 2 br"
243,243,6 bed house for sale in parkwood collection,lorong 1 realty park,parkwood collection,semi-detached house,6,6,5748,unspecified,1.3671875,103.875,hougang central,hougang,4615800.0,2022,99-year leasehold,"4, 5, 6 br"
244,244,6 bed house for sale in holland grove,holland grove view,holland grove,bungalow,6,6,5580,unspecified,1.326171875,103.8125,coronation road,bukit timah,14910000.0,1997,99-year leasehold,"4, 5, 6, 7 br"
245,245,hdb flat for sale in 932b hougang avenue 9,hougang / punggol / sengkang (d19),hougang crimson,hdb,3,2,990,unspecified,1.375,103.875,trafalgar,hougang,699300.0,2016,99-year leasehold,"2, 3 br"
246,246,6 bed house for sale in binjai park,binjai park,binjai park,bungalow,6,8,9000,unspecified,1.341796875,103.8125,swiss club,bukit timah,54600000.0,2011,999-year leasehold,"1, 4, 5, 6, 7, 9 br"
247,247,4 bed ec for sale in forestville,24 woodlands drive 16,forestville,executive condo,4,2,1249,partial,1.4326171875,103.8125,woodlands south,woodlands,1449000.0,2016,99-year leasehold,"studio, 2, 3, 4, 5 br"
248,248,3 bed condo for sale in the lilium,33 how sun road,the lilium,condo,3,3,1227,unspecified,1.345703125,103.875,upper paya lebar,serangoon,2696200.0,2021,freehold,"studio, 2, 3, 4, 5 br"
249,249,3 bed condo for sale in seven palms sentosa cove,155 cove drive,seven palms sentosa cove,condo,3,3,2723,unspecified,1.2431640625,103.8125,sentosa,southern islands,10269000.0,2010,99-year leasehold,"3, 4, 7 br"
250,250,1 bed condo for sale in fourth avenue residences,2 fourth avenue,fourth avenue residences,condo,1,1,474,partial,1.3271484375,103.8125,coronation road,bukit timah,1360100.0,2022,99-year leasehold,"studio, 1, 2, 3, 4, 5 br"
251,251,3 bed condo for sale in bartley vue,6 jalan bunga rampai,bartley vue,condo,3,2,947,partial,1.3408203125,103.875,joo seng,toa payoh,1890000.0,2026,99-year leasehold,"studio, 1, 2, 3, 4, 5 br"
252,252,hdb flat for sale in 31 ghim moh link,tanglin / holland (d10),ghim moh edge,hdb,3,2,1001,unspecified,1.3095703125,103.8125,ghim moh,queenstown,1016400.0,2017,99-year leasehold,"2, 3 br"
253,253,4 bed condo for sale in one pearl bank,1 pearl bank,one pearl bank,condo,4,4,1399,unspecified,1.283203125,103.8125,pearl's hill,outram,3953200.0,2023,99-year leasehold,"studio, 1, 2, 3, 4, 5, 8 br"
254,254,5 bed condo for sale in one holland village residences / one holland village,5 holland village way,one holland village residences / one holland village,condo,5,5,3454,unspecified,1.3115234375,103.8125,holland drive,queenstown,12821900.0,2025,99-year leasehold,"1, 2, 3, 4, 5 br"
255,255,3 bed house for sale in coral park,pemimpin place,coral park,terraced house,3,3,2000,unspecified,1.3544921875,103.8125,marymount,bishan,4200000.0,1981,freehold,"1, 3, 4, 6 br"
256,256,hdb flat for sale in 507 hougang avenue 8,hougang / punggol / sengkang (d19),hdb-hougang,hdb,3,2,904,unspecified,1.3720703125,103.875,hougang west,hougang,513300.0,1989,99-year leasehold,"studio, 1, 2, 3, 4, 5, 6 br"
257,257,4 bed house for sale in bedok pesari,jalan greja,bedok pesari,semi-detached house,4,3,2800,unspecified,1.32421875,103.9375,bedok south,bedok,6699000.0,1989,freehold,"3, 4, 5, 6, 7 br"
258,258,hdb flat for sale in 459 clementi avenue 3,buona vista / west coast / clementi (d5),clementi heights,hdb,3,2,1183,unfurnished,1.3115234375,103.75,clementi central,clementi,966000.0,2002,99-year leasehold,"2, 3, 4 br"
259,259,hdb flat for sale in 268a boon lay drive,boon lay / jurong / tuas (d22),boon lay court,hdb,3,2,1184,unspecified,1.34765625,103.6875,boon lay place,jurong west,735000.0,2002,99-year leasehold,3 br
260,260,4 bed condo for sale in piccadilly grand / piccadilly galleria,1 northumberland road,piccadilly grand / piccadilly galleria,condo,4,4,1378,partial,1.3115234375,103.875,kampong java,kallang,2884400.0,2026,99-year leasehold,"studio, 1, 2, 3, 4, 5 br"
261,261,2 bed condo for sale in suffolk premier,3 suffolk road,suffolk premier,condo,2,3,1001,partial,1.314453125,103.875,moulmein,novena,1837500.0,2009,freehold,"1, 2, 3 br"
262,262,3 bed condo for sale in the commodore,59 canberra drive,the commodore,condo,3,2,969,unspecified,1.44140625,103.8125,sembawang springs,sembawang,1470000.0,2024,99-year leasehold,"1, 2, 3, 4, 5 br"
263,263,6 bed house for sale in bedok park,limau garden,bedok park,semi-detached house,6,7,8000,unfurnished,1.306640625,103.9375,siglap,bedok,6279000.0,1970,freehold,"5, 6, 10 br"
264,264,4 bed condo for sale in canninghill piers / canninghill square,5 clarke quay,canninghill piers / canninghill square,condo,4,4,1959,unspecified,1.2919921875,103.875,clarke quay,singapore river,5821200.0,2026,99-year leasehold,"studio, 1, 2, 3, 4, 5, 6 br"
265,265,hdb flat for sale in 507 hougang avenue 8,hougang / punggol / sengkang (d19),hdb-hougang,hdb,3,2,904,partial,1.3720703125,103.875,hougang west,hougang,513300.0,1989,99-year leasehold,"studio, 1, 2, 3, 4, 5, 6 br"
266,266,2 bed condo for sale in canninghill piers / canninghill square,1 clarke quay,canninghill piers / canninghill square,condo,2,2,829,partial,1.291015625,103.875,clarke quay,singapore river,2337300.0,2026,99-year leasehold,"studio, 1, 2, 3, 4, 5, 6 br"
267,267,1 bed condo for sale in the avenir,8 river valley close,the avenir,condo,1,1,527,unspecified,1.2939453125,103.8125,institution hill,river valley,1739800.0,2025,freehold,"studio, 1, 2, 3, 4, 5 br"
268,268,2 bed condo for sale in phoenix residences,81 phoenix avenue,phoenix residences,condo,2,1,721,unspecified,1.375,103.75,gombak,bukit batok,1118200.0,2024,99-year leasehold,"1, 2, 3, 4 br"
269,269,4 bed ec for sale in ecopolitan,132 punggol walk,ecopolitan,executive condo,4,2,1195,unfurnished,1.4013671875,103.875,matilda,punggol,1554000.0,2016,99-year leasehold,"studio, 3, 4, 5 br"
270,270,hdb flat for sale in 662 hougang avenue 4,hougang / punggol / sengkang (d19),hdb-hougang,hdb,3,2,1109,unspecified,1.3740234375,103.875,hougang west,hougang,480900.0,1989,99-year leasehold,"studio, 1, 2, 3, 4, 5, 6 br"
271,271,3 bed condo for sale in pullman residences newton,18 dunearn road,pullman residences newton,condo,3,3,1163,unspecified,1.31640625,103.8125,moulmein,novena,3381000.0,2023,freehold,"studio, 1, 2, 3, 4, 5 br"
272,272,3 bed house for sale in washington villa,tamarind road,washington villa,semi-detached house,3,4,5800,unspecified,1.390625,103.875,seletar hills,serangoon,9333300.0,1976,freehold,"3, 4 br"
273,273,6 bed house for sale in sentosa cove,treasure island,sentosa cove,bungalow,6,6,11600,partial,1.248046875,103.8125,sentosa,southern islands,26827500.0,2010,99-year leasehold,"2, 3, 4, 5, 6, 7, 8, 10 br"
274,274,hdb flat for sale in 34 chai chee avenue,bedok / upper east coast (d16),ansar garden,hdb,3,2,1227,unspecified,1.3251953125,103.9375,kembangan,bedok,732900.0,1975,99-year leasehold,"2, 3, 4 br"
275,275,hdb flat for sale in 862a tampines street 83,pasir ris / tampines (d18),tampines parkview,hdb,3,2,1119,unspecified,1.35546875,103.9375,tampines west,tampines,582800.0,1988,99-year leasehold,"3, 4 br"
276,276,3 bed condo for sale in marina bay suites,3 central boulevard,marina bay suites,condo,3,3,1604,unspecified,1.2802734375,103.875,central subzone,downtown core,3150000.0,2013,99-year leasehold,"2, 3, 4, 5 br"
277,277,hdb flat for sale in 51 lengkok bahru,alexandra / commonwealth (d3),hdb-bukit merah,hdb,3,2,1313,unspecified,1.2880859375,103.8125,alexandra hill,bukit merah,840000.0,1986,99-year leasehold,"studio, 1, 2, 3, 4, 5 br"
278,278,3 bed condo for sale in centro residences,59 ang mo kio avenue 8,centro residences,condo,3,3,1173,unfurnished,1.3701171875,103.875,ang mo kio town centre,ang mo kio,2507400.0,2014,99-year leasehold,"2, 3, 4 br"
279,279,4 bed condo for sale in leedon green,26 leedon heights,leedon green,condo,4,4,1496,unspecified,1.3125,103.8125,farrer court,bukit timah,4711400.0,2023,freehold,"studio, 1, 2, 3, 4 br"
280,280,hdb flat for sale in 47 teban gardens road,boon lay / jurong / tuas (d22),hdb-jurong east,hdb,2,2,731,unspecified,1.3203125,103.75,teban gardens,jurong east,367500.0,1982,99-year leasehold,"studio, 1, 2, 3, 4, 5, 6 br"
281,281,4 bed condo for sale in sculptura ardmore,8 ardmore park,sculptura ardmore,condo,4,4,2842,unspecified,1.30859375,103.8125,orange grove,newton,16054500.0,2014,freehold,"3, 4, 5 br"
282,282,4 bed condo for sale in sophia hills,27 mount sophia,sophia hills,condo,4,4,1496,unspecified,1.30078125,103.875,mount emily,rochor,3255000.0,2018,99-year leasehold,"studio, 1, 2, 3, 4 br"
283,283,1 bed condo for sale in lumiere,2 mistri road,lumiere,condo,1,1,635,partial,1.2744140625,103.875,tanjong pagar,downtown core,1353300.0,2010,99-year leasehold,"studio, 1, 2, 3, 4 br"
284,284,3 bed condo for sale in liv @ mb,114a arthur road,liv @ mb,condo,3,2,1302,unspecified,1.2998046875,103.875,mountbatten,marine parade,2625000.0,2024,99-year leasehold,"studio, 1, 2, 3, 4, 5, 6, 7, 8, 9 br"
285,285,3 bed condo for sale in the clearwater,12 bedok reservoir view,the clearwater,condo,3,3,1227,unspecified,1.337890625,103.9375,bedok reservoir,bedok,1751400.0,2002,99-year leasehold,"1, 2, 3, 4 br"
286,286,4 bed condo for sale in forest woods,19 lorong lew lian,forest woods,condo,4,3,1238,fully,1.3515625,103.875,upper paya lebar,serangoon,2835000.0,2021,99-year leasehold,"1, 2, 3, 4 br"
287,287,hdb flat for sale in 206 toa payoh north,balestier / toa payoh (d12),toa payoh north,hdb,2,2,818,unspecified,1.3427734375,103.875,toa payoh west,toa payoh,428400.0,1973,99-year leasehold,"1, 2, 3, 4 br"
288,288,2 bed condo for sale in haus on handy,30 handy road,haus on handy,condo,2,1,689,unfurnished,1.2998046875,103.875,dhoby ghaut,museum,1862700.0,2023,99-year leasehold,"1, 2, 3 br"
289,289,2 bed condo for sale in perfect ten,321 bukit timah road,perfect ten,condo,2,2,786,unspecified,1.3173828125,103.8125,nassim,tanglin,2372000.0,2025,freehold,"studio, 2, 3, 4 br"
290,290,2 bed condo for sale in one pearl bank,1 pearl bank,one pearl bank,condo,2,1,700,unfurnished,1.283203125,103.8125,pearl's hill,outram,2052800.0,2023,99-year leasehold,"studio, 1, 2, 3, 4, 5, 8 br"
291,291,hdb flat for sale in 894c woodlands drive 50,admiralty / woodlands (d25),hdb-woodlands,hdb,3,2,1087,unspecified,1.4375,103.8125,midview,woodlands,510300.0,2004,99-year leasehold,"1, 2, 3, 4, 5, 6, 7 br"
292,292,hdb flat for sale in 338d anchorvale crescent,hougang / punggol / sengkang (d19),anchorvale parkview,hdb,4,3,1291,unspecified,1.3994140625,103.875,anchorvale,sengkang,735000.0,2017,99-year leasehold,"3, 4 br"
293,293,hdb flat for sale in 147 bishan street 11,ang mo kio / bishan / thomson (d20),bishan green,hdb,3,2,1109,unspecified,1.34375,103.875,bishan east,bishan,714000.0,1987,99-year leasehold,"3, 4, 5 br"
294,294,5 bed house for sale in seng yong villas,jalan grisek,seng yong villas,semi-detached house,5,6,5678,unspecified,1.3251953125,103.9375,kembangan,bedok,7140000.0,1999,freehold,5 br
295,295,4 bed condo for sale in parc clematis,10 jalan lempeng,parc clematis,condo,4,4,1496,unspecified,1.3173828125,103.75,faber,clementi,2835000.0,2023,99-year leasehold,"studio, 1, 2, 3, 4, 5 br"
296,296,3 bed condo for sale in 26 newton,26 newton road,26 newton,condo,3,2,850,unspecified,1.3154296875,103.8125,moulmein,novena,1890000.0,2016,freehold,"1, 2, 3 br"
297,297,2 bed condo for sale in the gazania,9 how sun drive,the gazania,condo,2,1,700,unspecified,1.3447265625,103.875,upper paya lebar,serangoon,1637000.0,2022,freehold,"studio, 1, 2, 3, 4, 5 br"
298,298,4 bed condo for sale in royalgreen,2 anamalai avenue,royalgreen,condo,4,4,1475,unspecified,1.330078125,103.8125,holland road,bukit timah,4329000.0,2021,freehold,"2, 3, 4, 5 br"
299,299,5 bed house for sale in dunearn estate,berrima road,dunearn estate,bungalow,5,5,7200,unspecified,1.3193359375,103.8125,malcolm,novena,24150000.0,1990,freehold,"studio, 1, 4, 5, 6, 7 br"
300,300,1 bed condo for sale in midtown bay,122 beach road,midtown bay,condo,1,1,484,partial,1.2958984375,103.875,city hall,downtown core,1594700.0,2025,99-year leasehold,"1, 2, 3 br"
301,301,hdb flat for sale in 34 eunos crescent,eunos / geylang / paya lebar (d14),eunos court,hdb,3,2,915,unspecified,1.3212890625,103.875,geylang east,geylang,840000.0,2006,99-year leasehold,"2, 3, 4 br"
302,302,hdb flat for sale in 556 ang mo kio avenue 10,ang mo kio / bishan / thomson (d20),cheng san place,hdb,2,2,731,unspecified,1.3720703125,103.875,cheng san,ang mo kio,420000.0,1980,99-year leasehold,"2, 3, 4 br"
303,303,1 bed condo for sale in 35 gilstead,35 gilstead road,35 gilstead,condo,1,1,710,unspecified,1.3173828125,103.8125,moulmein,novena,1837500.0,2022,freehold,"1, 2, 3, 4 br"
304,304,hdb flat for sale in 673 hougang avenue 8,hougang / punggol / sengkang (d19),hdb-hougang,hdb,2,2,689,unspecified,1.376953125,103.875,hougang east,hougang,399000.0,1989,99-year leasehold,"studio, 1, 2, 3, 4, 5, 6 br"
305,305,hdb flat for sale in 326 ubi avenue 1,eunos / geylang / paya lebar (d14),kampung ubi estate,hdb,3,3,1571,unspecified,1.3271484375,103.875,kampong ubi,geylang,1575000.0,1986,99-year leasehold,"3, 4 br"
306,306,4 bed condo for sale in the reef at king's dock,20 harbourfront avenue,the reef at king's dock,condo,4,3,2637,unspecified,1.265625,103.8125,maritime square,bukit merah,5591200.0,2025,99-year leasehold,"studio, 1, 2, 3, 4, 5, 6, 7, 10 br"
307,307,hdb flat for sale in 316a punggol way,hougang / punggol / sengkang (d19),waterway cascadia,hdb,3,2,1216,unspecified,1.4091796875,103.875,punggol town centre,punggol,892500.0,2017,99-year leasehold,"2, 3, 4 br"
308,308,2 bed condo for sale in kopar at newton,8 makeway avenue,kopar at newton,condo,2,1,614,unspecified,1.3125,103.8125,moulmein,novena,1830200.0,2023,99-year leasehold,"studio, 1, 2, 3, 4, 5, 6 br"
309,309,5 bed ec for sale in north gaia,45 yishun close,north gaia,executive condo,5,4,1593,unspecified,1.4345703125,103.875,yishun east,yishun,2071400.0,2027,99-year leasehold,"2, 3, 4, 5 br"
310,310,4 bed condo for sale in sengkang grand residences,72 compassvale bow,sengkang grand residences,condo,4,3,1324,unspecified,1.3828125,103.875,compassvale,sengkang,2475900.0,2023,99-year leasehold,"1, 2, 3, 4 br"
311,311,hdb flat for sale in 259b punggol field,hougang / punggol / sengkang (d19),punggol topaz,hdb,3,2,1001,unspecified,1.404296875,103.875,matilda,punggol,669900.0,2016,99-year leasehold,"2, 3, 4, 5 br"
312,312,1 bed condo for sale in one pearl bank,1 pearl bank,one pearl bank,condo,1,1,431,unfurnished,1.283203125,103.8125,pearl's hill,outram,1236900.0,2023,99-year leasehold,"studio, 1, 2, 3, 4, 5, 8 br"
313,313,1 bed condo for sale in leedon green,34 leedon heights,leedon green,condo,1,1,474,unfurnished,1.3125,103.8125,farrer court,bukit timah,1415400.0,2023,freehold,"studio, 1, 2, 3, 4 br"
314,314,4 bed condo for sale in the watergardens at canberra,57 canberra drive,the watergardens at canberra,condo,4,4,1302,unspecified,1.4404296875,103.8125,sembawang springs,sembawang,2082200.0,2026,99-year leasehold,"2, 3, 4, 5 br"
315,315,2 bed condo for sale in 8 @ woodleigh,8 woodleigh close,8 @ woodleigh,condo,2,2,1119,unspecified,1.3359375,103.875,woodleigh,toa payoh,1709400.0,2012,99-year leasehold,"studio, 1, 2, 3 br"
316,316,5 bed condo for sale in piccadilly grand / piccadilly galleria,1 northumberland road,piccadilly grand / piccadilly galleria,condo,5,5,1894,unspecified,1.3115234375,103.875,kampong java,kallang,3150000.0,2026,99-year leasehold,"studio, 1, 2, 3, 4, 5 br"
317,317,hdb flat for sale in 208 boon lay place,boon lay / jurong / tuas (d22),boon lay place,hdb,2,2,700,partial,1.34765625,103.6875,boon lay place,jurong west,357000.0,1976,99-year leasehold,"studio, 2, 3 br"
318,318,hdb flat for sale in 154 mei ling street,alexandra / commonwealth (d3),mei ling heights,hdb,2,2,721,fully,1.2939453125,103.8125,mei chin,queenstown,378000.0,1970,99-year leasehold,"2, 3 br"
319,319,hdb flat for sale in 194a bukit batok west avenue 6,bukit batok / bukit panjang / choa chu kang (d23),skyline i @ bukit batok,hdb,3,2,1022,partial,1.3447265625,103.75,bukit batok west,bukit batok,681200.0,2017,99-year leasehold,"2, 3, 4, 5 br"
320,320,hdb flat for sale in 120b edgedale plains,hougang / punggol / sengkang (d19),punggol edge,hdb,3,2,1044,unfurnished,1.39453125,103.9375,punggol field,punggol,651000.0,2017,99-year leasehold,"2, 3, 4 br"
321,321,3 bed condo for sale in 35 gilstead,35 gilstead road,35 gilstead,condo,3,4,1539,partial,1.3173828125,103.8125,moulmein,novena,3609900.0,2022,freehold,"1, 2, 3, 4 br"
322,322,2 bed condo for sale in the avenir,8 river valley close,the avenir,condo,2,2,807,partial,1.2939453125,103.8125,institution hill,river valley,2453800.0,2025,freehold,"studio, 1, 2, 3, 4, 5 br"
323,323,5 bed house for sale in kimnan park,taman kembangan,kimnan park,semi-detached house,5,5,4000,unspecified,1.32421875,103.9375,kembangan,bedok,6174000.0,2002,freehold,"4, 5, 6 br"
324,324,hdb flat for sale in 19 dover crescent,buona vista / west coast / clementi (d5),dover ville,hdb,3,2,936,unspecified,1.3076171875,103.8125,dover,queenstown,645800.0,2003,99-year leasehold,"2, 3, 4 br"
325,325,4 bed condo for sale in forett @ bukit timah,32 toh tuck road,forett @ bukit timah,condo,4,3,1302,partial,1.3388671875,103.75,bukit batok south,bukit batok,2625000.0,2024,freehold,"studio, 1, 2, 3, 4, 5 br"
326,326,3 bed condo for sale in langston ville,15 kim yam road,langston ville,condo,3,2,946,fully,1.294921875,103.8125,institution hill,river valley,1879500.0,2000,999-year leasehold,"2, 3 br"
327,327,6 bed house for sale in sentosa cove,treasure island,sentosa cove,bungalow,6,7,11500,unspecified,1.248046875,103.8125,sentosa,southern islands,22890000.0,2010,99-year leasehold,"2, 3, 4, 5, 6, 7, 8, 10 br"
328,328,3 bed condo for sale in sky [email protected],1 bedok central,sky [email protected],condo,3,2,893,unspecified,1.3251953125,103.9375,bedok north,bedok,1795500.0,2027,99-year leasehold,"1, 2, 3, 4 br"
329,329,3 bed condo for sale in the tropica,53 tampines avenue 1,the tropica,condo,3,3,1238,unfurnished,1.3486328125,103.9375,tampines west,tampines,1417500.0,2000,99-year leasehold,"2, 3, 4 br"
330,330,1 bed condo for sale in wallich residence,3 wallich street,wallich residence,condo,1,1,614,fully,1.27734375,103.875,tanjong pagar,downtown core,2402400.0,2016,99-year leasehold,"studio, 1, 2, 3, 4, 5 br"
331,331,2 bed condo for sale in grange 1866,74 grange road,grange 1866,condo,2,1,710,unspecified,1.3037109375,103.8125,chatsworth,tanglin,2243800.0,2024,freehold,"1, 2 br"
332,332,3 bed ec for sale in north gaia,25 yishun close,north gaia,executive condo,3,2,969,unspecified,1.4345703125,103.875,yishun east,yishun,1197000.0,2027,99-year leasehold,"2, 3, 4, 5 br"
333,333,4 bed condo for sale in the avenir,10 river valley close,the avenir,condo,4,4,2056,unspecified,1.2939453125,103.8125,institution hill,river valley,6606600.0,2025,freehold,"studio, 1, 2, 3, 4, 5 br"
334,334,3 bed condo for sale in liv @ mb,114c arthur road,liv @ mb,condo,3,2,1206,partial,1.2998046875,103.875,mountbatten,marine parade,2887500.0,2024,99-year leasehold,"studio, 1, 2, 3, 4, 5, 6, 7, 8, 9 br"
335,335,hdb flat for sale in 260a ang mo kio street 21,ang mo kio / bishan / thomson (d20),kebun baru court,hdb,3,2,1216,fully,1.369140625,103.8125,shangri-la,ang mo kio,1365000.0,2018,99-year leasehold,3 br
336,336,hdb flat for sale in 113 whampoa road,balestier / toa payoh (d12),whampoa gardens,hdb,4,2,1431,unspecified,1.326171875,103.875,balestier,novena,929200.0,1994,99-year leasehold,"1, 2, 3, 4 br"
337,337,3 bed condo for sale in waterscape at cavenagh,65 cavenagh road,waterscape at cavenagh,condo,3,3,1313,partial,1.302734375,103.8125,somerset,orchard,2934800.0,2014,freehold,"1, 2, 3, 4 br"
338,338,4 bed condo for sale in the gazania,9 how sun drive,the gazania,condo,4,4,1216,unspecified,1.3447265625,103.875,upper paya lebar,serangoon,2598800.0,2022,freehold,"studio, 1, 2, 3, 4, 5 br"
339,339,hdb flat for sale in 73 telok blangah heights,harbourfront / telok blangah (d4),hdb-bukit merah,hdb,3,2,1259,unspecified,1.275390625,103.8125,telok blangah drive,bukit merah,764400.0,1986,99-year leasehold,"studio, 1, 2, 3, 4, 5 br"
340,340,3 bed condo for sale in marina bay suites,3 central boulevard,marina bay suites,condo,3,3,1571,unspecified,1.2802734375,103.875,central subzone,downtown core,3719100.0,2013,99-year leasehold,"2, 3, 4, 5 br"
341,341,4 bed condo for sale in royal hallmark,1 haig lane,royal hallmark,condo,4,2,1163,unfurnished,1.30859375,103.875,katong,marine parade,2422600.0,2025,freehold,"3, 4, 5 br"
342,342,hdb flat for sale in 453b fernvale road,seletar / yio chu kang (d28),fernvale flora,hdb,3,2,1012,unspecified,1.39453125,103.875,fernvale,sengkang,839000.0,2015,99-year leasehold,"1, 2, 3, 4 br"
343,343,2 bed condo for sale in sloane residences,17 balmoral road,sloane residences,condo,2,2,743,unspecified,1.3154296875,103.8125,nassim,tanglin,2557800.0,2022,freehold,"2, 3, 4, 7 br"
344,344,hdb flat for sale in 163 lorong 1 toa payoh,balestier / toa payoh (d12),toa payoh green,hdb,2,1,699,unfurnished,1.33203125,103.875,toa payoh central,toa payoh,407400.0,1972,99-year leasehold,"studio, 1, 2, 3, 4 br"
345,345,4 bed ec for sale in bellewoods,102 woodlands avenue 5,bellewoods,executive condo,4,2,1249,unspecified,1.431640625,103.8125,woodlands south,woodlands,1627500.0,2017,99-year leasehold,"studio, 2, 3, 4, 5 br"
346,346,1 bed condo for sale in the gazania,17 how sun drive,the gazania,condo,1,1,463,unfurnished,1.3447265625,103.875,upper paya lebar,serangoon,1194900.0,2022,freehold,"studio, 1, 2, 3, 4, 5 br"
347,347,5 bed house for sale in unique garden,lorong kismis,unique garden,semi-detached house,5,5,7700,unspecified,1.3388671875,103.75,anak bukit,bukit timah,9135000.0,1997,99-year leasehold,"5, 6, 7 br"
348,348,3 bed condo for sale in meyer mansion,79 meyer road,meyer mansion,condo,3,4,1496,partial,1.296875,103.875,mountbatten,marine parade,3735900.0,2024,freehold,"studio, 1, 2, 3, 4, 5 br"
349,349,hdb flat for sale in 879a tampines avenue 8,pasir ris / tampines (d18),tampines greenforest,hdb,3,2,1001,unspecified,1.3564453125,103.9375,tampines west,tampines,691700.0,2017,99-year leasehold,"2, 3, 4 br"
350,350,3 bed condo for sale in mooi residences,139 holland road,mooi residences,condo,3,3,1281,unfurnished,1.30859375,103.8125,ridout,tanglin,3245400.0,2024,freehold,"studio, 2, 3, 4 br"
351,351,6 bed house for sale in parkwood collection,lorong 1 realty park,parkwood collection,semi-detached house,6,6,5683,unspecified,1.3671875,103.875,hougang central,hougang,4776400.0,2022,99-year leasehold,"4, 5, 6 br"
352,352,2 bed condo for sale in dover parkview,36 dover rise,dover parkview,condo,2,3,936,unspecified,1.3056640625,103.8125,dover,queenstown,1449000.0,1997,99-year leasehold,"1, 2, 3 br"
353,353,5 bed house for sale in parkwood collection,lorong 1 realty park,parkwood collection,semi-detached house,5,5,4865,unspecified,1.3671875,103.875,hougang central,hougang,4305000.0,2022,99-year leasehold,"4, 5, 6 br"
354,354,1 bed condo for sale in 10 evelyn,10 evelyn road,10 evelyn,condo,1,1,495,partial,1.31640625,103.8125,moulmein,novena,1302000.0,2022,freehold,"studio, 1, 2, 3 br"
355,355,5 bed house for sale in kasara,ocean drive,kasara,bungalow,5,6,8000,partial,1.2490234375,103.8125,sentosa,southern islands,22050000.0,2012,99-year leasehold,"2, 4, 5, 6, 8 br"
356,356,3 bed condo for sale in the watergardens at canberra,29 canberra drive,the watergardens at canberra,condo,3,2,958,unspecified,1.4404296875,103.8125,sembawang springs,sembawang,1496200.0,2026,99-year leasehold,"2, 3, 4, 5 br"
357,357,hdb flat for sale in 411 tampines street 41,pasir ris / tampines (d18),sun plaza view,hdb,2,2,743,unspecified,1.359375,103.9375,tampines east,tampines,446200.0,1985,99-year leasehold,"2, 3, 4, 6 br"
358,358,3 bed ec for sale in north gaia,29 yishun close,north gaia,executive condo,3,2,1076,partial,1.4345703125,103.875,yishun east,yishun,1371300.0,2027,99-year leasehold,"2, 3, 4, 5 br"
359,359,5 bed house for sale in thomson hills estate,sembawang hills drive,thomson hills estate,terraced house,5,6,2013,unspecified,1.3779296875,103.8125,sembawang hills,ang mo kio,6174000.0,1980,freehold,"2, 3, 4, 5, 6, 7, 8, 10 br"
360,360,5 bed house for sale in the shaughnessy,miltonia close,the shaughnessy,cluster house,5,5,3304,partial,1.4169921875,103.875,lower seletar,yishun,2541000.0,2007,99-year leasehold,"2, 4, 5, 6 br"
361,361,1 bed condo for sale in laurel tree,42 hillview terrace,laurel tree,condo,1,1,463,partial,1.3525390625,103.75,guilin,bukit batok,745500.0,2016,freehold,"1, 2 br"
362,362,2 bed ec for sale in the vales,79 anchorvale crescent,the vales,executive condo,2,2,764,unspecified,1.3974609375,103.875,anchorvale,sengkang,1143300.0,2017,99-year leasehold,"2, 3, 4, 5 br"
363,363,hdb flat for sale in 8a upper boon keng road,eunos / geylang / paya lebar (d14),kallang trivista,hdb,3,2,1012,unspecified,1.3134765625,103.875,boon keng,kallang,1016400.0,2017,99-year leasehold,"2, 3, 4 br"
364,364,2 bed condo for sale in the miltonia residences,520 miltonia close,the miltonia residences,condo,2,2,840,unspecified,1.4169921875,103.875,lower seletar,yishun,975300.0,2015,99-year leasehold,"1, 2, 3, 4 br"
365,365,3 bed condo for sale in the avenir,8 river valley close,the avenir,condo,3,3,1141,partial,1.2939453125,103.8125,institution hill,river valley,3767400.0,2025,freehold,"studio, 1, 2, 3, 4, 5 br"
366,366,hdb flat for sale in 969 hougang street 91,hougang / punggol / sengkang (d19),hdb-hougang,hdb,3,2,969,unspecified,1.375,103.875,trafalgar,hougang,488200.0,1989,99-year leasehold,"studio, 1, 2, 3, 4, 5, 6 br"
367,367,hdb flat for sale in 313c anchorvale road,hougang / punggol / sengkang (d19),anchorvale gardens,hdb,3,2,990,unspecified,1.3916015625,103.875,anchorvale,sengkang,519800.0,2003,99-year leasehold,"3, 4, 5 br"
368,368,4 bed house for sale in opera estate,tosca street,opera estate,bungalow,4,2,2002,unspecified,1.3193359375,103.9375,frankel,bedok,11433200.0,1980,freehold,"studio, 2, 3, 4, 5, 6, 7, 8, 9 br"
369,369,3 bed condo for sale in the watergardens at canberra,33 canberra drive,the watergardens at canberra,condo,3,3,1324,partial,1.4404296875,103.8125,sembawang springs,sembawang,1839600.0,2026,99-year leasehold,"2, 3, 4, 5 br"
370,370,3 bed condo for sale in the watergardens at canberra,29 canberra drive,the watergardens at canberra,condo,3,2,958,unspecified,1.4404296875,103.8125,sembawang springs,sembawang,1496200.0,2026,99-year leasehold,"2, 3, 4, 5 br"
371,371,2 bed condo for sale in the hyde,11 balmoral road,the hyde,condo,2,2,775,unfurnished,1.314453125,103.8125,nassim,tanglin,2548400.0,2022,freehold,"1, 2, 3, 4, 5 br"
372,372,hdb flat for sale in 38 upper boon keng road,eunos / geylang / paya lebar (d14),upper boon keng riverview,hdb,3,2,1259,unspecified,1.318359375,103.875,boon keng,kallang,659400.0,1976,99-year leasehold,3 br
373,373,2 bed condo for sale in amber park,18a amber gardens,amber park,condo,2,1,678,partial,1.30078125,103.875,marine parade,marine parade,1829100.0,2024,freehold,"1, 2, 3, 4, 5, 6, 7 br"
374,374,3 bed condo for sale in cairnhill crest,8 cairnhill circle,cairnhill crest,condo,3,3,1733,partial,1.3056640625,103.8125,cairnhill,newton,4515000.0,2004,freehold,"1, 2, 3, 4, 5 br"
375,375,2 bed condo for sale in sky [email protected],1 bedok central,sky [email protected],condo,2,1,656,unspecified,1.3251953125,103.9375,bedok north,bedok,1260000.0,2027,99-year leasehold,"1, 2, 3, 4 br"
376,376,2 bed condo for sale in meyer mansion,79 meyer road,meyer mansion,condo,2,2,883,unspecified,1.296875,103.875,mountbatten,marine parade,2633700.0,2024,freehold,"studio, 1, 2, 3, 4, 5 br"
377,377,hdb flat for sale in 113 ang mo kio avenue 4,ang mo kio / bishan / thomson (d20),kebun baru heights,hdb,3,2,990,unspecified,1.3720703125,103.8125,kebun bahru,ang mo kio,509200.0,1978,99-year leasehold,"2, 3, 4, 5 br"
378,378,2 bed condo for sale in the gazania,9 how sun drive,the gazania,condo,2,1,678,partial,1.3447265625,103.875,upper paya lebar,serangoon,1730400.0,2022,freehold,"studio, 1, 2, 3, 4, 5 br"
379,379,3 bed condo for sale in fourth avenue residences,12 fourth avenue,fourth avenue residences,condo,3,3,1119,unspecified,1.3271484375,103.8125,coronation road,bukit timah,2940300.0,2022,99-year leasehold,"studio, 1, 2, 3, 4, 5 br"
380,380,2 bed condo for sale in mayfair modern,6 rifle range road,mayfair modern,condo,2,2,721,partial,1.3525390625,103.8125,nature reserve,bukit panjang,1575000.0,2024,99-year leasehold,"1, 2, 3, 4, 5 br"
381,381,3 bed condo for sale in straits mansions,26 sea avenue,straits mansions,condo,3,3,1012,unspecified,1.3056640625,103.9375,katong,marine parade,2310000.0,2020,freehold,"2, 3, 4 br"
382,382,6 bed house for sale in the carrara,mountbatten road,the carrara,semi-detached house,6,5,5537,unspecified,1.30078125,103.875,mountbatten,marine parade,9076200.0,2025,freehold,"studio, 4, 5, 6, 7 br"
383,383,2 bed condo for sale in myra,9 meyappa chettiar road,myra,condo,2,2,732,unspecified,1.3310546875,103.875,potong pasir,toa payoh,1711500.0,2024,freehold,"1, 2, 3, 4 br"
384,384,hdb flat for sale in 1 beach road,beach road / bugis / rochor (d7),beach road gardens,hdb,3,2,732,unspecified,1.294921875,103.875,city hall,downtown core,449400.0,1979,99-year leasehold,"1, 2, 3 br"
385,385,2 bed condo for sale in leedon green,28 leedon heights,leedon green,condo,2,2,775,unfurnished,1.3125,103.8125,farrer court,bukit timah,2113600.0,2023,freehold,"studio, 1, 2, 3, 4 br"
386,386,4 bed condo for sale in midtown modern,18 tan quee lan street,midtown modern,condo,4,4,1432,unspecified,1.298828125,103.875,bugis,downtown core,3937500.0,2024,99-year leasehold,"studio, 1, 2, 3, 4, 5, 6 br"
387,387,5 bed condo for sale in parc clematis,10 jalan lempeng,parc clematis,condo,5,4,1711,unspecified,1.3173828125,103.75,faber,clementi,3129000.0,2023,99-year leasehold,"studio, 1, 2, 3, 4, 5 br"
388,388,6 bed house for sale in the carrara,mountbatten road,the carrara,semi-detached house,6,6,6376,partial,1.30078125,103.875,mountbatten,marine parade,9502500.0,2025,freehold,"studio, 4, 5, 6, 7 br"
389,389,1 bed condo for sale in fourth avenue residences,6 fourth avenue,fourth avenue residences,condo,1,1,495,unspecified,1.3271484375,103.8125,coronation road,bukit timah,1071000.0,2022,99-year leasehold,"studio, 1, 2, 3, 4, 5 br"
390,390,3 bed condo for sale in one bernam,1 bernam street,one bernam,condo,3,2,1421,unspecified,1.2744140625,103.8125,anson,downtown core,3514400.0,2026,99-year leasehold,"studio, 1, 2, 3, 4, 5 br"
391,391,1 bed condo for sale in canninghill piers / canninghill square,5 clarke quay,canninghill piers / canninghill square,condo,1,1,506,unspecified,1.2919921875,103.875,clarke quay,singapore river,1890000.0,2026,99-year leasehold,"studio, 1, 2, 3, 4, 5, 6 br"
392,392,2 bed condo for sale in hyll on holland,89 holland road,hyll on holland,condo,2,2,657,unfurnished,1.310546875,103.8125,leedon park,bukit timah,2022100.0,2025,freehold,"studio, 1, 2, 3, 4 br"
393,393,hdb flat for sale in 26b jalan membina,alexandra / commonwealth (d3),membina court,hdb,2,2,646,unspecified,1.283203125,103.8125,tiong bahru station,bukit merah,609000.0,2009,99-year leasehold,"1, 2, 3, 4, 5 br"
394,394,4 bed condo for sale in cliveden at grange,108 grange road,cliveden at grange,condo,4,4,2842,fully,1.2998046875,103.8125,one tree hill,river valley,12398400.0,2011,freehold,"3, 4, 5, 6 br"
395,395,4 bed condo for sale in piccadilly grand / piccadilly galleria,1 northumberland road,piccadilly grand / piccadilly galleria,condo,4,4,1389,partial,1.3115234375,103.875,kampong java,kallang,2992700.0,2026,99-year leasehold,"studio, 1, 2, 3, 4, 5 br"
396,396,3 bed condo for sale in urban vista,10 tanah merah kechil link,urban vista,condo,3,3,1485,unspecified,1.3271484375,103.9375,bedok north,bedok,1890000.0,2016,99-year leasehold,"1, 2, 3, 4 br"
397,397,2 bed condo for sale in neu at novena,27 moulmein rise,neu at novena,condo,2,2,657,unspecified,1.3193359375,103.875,moulmein,novena,1856400.0,2023,freehold,"1, 2, 3, 4, 5 br"
398,398,3 bed condo for sale in pullman residences newton,18 dunearn road,pullman residences newton,condo,3,3,1163,unspecified,1.31640625,103.8125,moulmein,novena,3242400.0,2023,freehold,"studio, 1, 2, 3, 4, 5 br"
399,399,4 bed condo for sale in meyer mansion,79 meyer road,meyer mansion,condo,4,4,1722,unspecified,1.296875,103.875,mountbatten,marine parade,4518000.0,2024,freehold,"studio, 1, 2, 3, 4, 5 br"
400,400,2 bed condo for sale in leedon green,32 leedon heights,leedon green,condo,2,2,818,unspecified,1.3125,103.8125,farrer court,bukit timah,2507400.0,2023,freehold,"studio, 1, 2, 3, 4 br"
401,401,2 bed condo for sale in tanah merah mansions,137 tanah merah kechil road south,tanah merah mansions,condo,2,2,880,unspecified,1.322265625,103.9375,bedok south,bedok,1383900.0,1984,freehold,"2, 3 br"
402,402,hdb flat for sale in 225a jurong east street 21,boon lay / jurong / tuas (d22),hdb-jurong east,hdb,2,2,721,unspecified,1.341796875,103.75,yuhua east,jurong east,386400.0,1982,99-year leasehold,"studio, 1, 2, 3, 4, 5, 6 br"
403,403,2 bed condo for sale in liv @ mb,114a arthur road,liv @ mb,condo,2,1,624,unspecified,1.2998046875,103.875,mountbatten,marine parade,1851200.0,2024,99-year leasehold,"studio, 1, 2, 3, 4, 5, 6, 7, 8, 9 br"
404,404,hdb flat for sale in 530d pasir ris drive 1,pasir ris / tampines (d18),pasir ris one,hdb,2,2,699,unspecified,1.373046875,103.9375,pasir ris central,pasir ris,648900.0,2015,99-year leasehold,"1, 2, 3, 4 br"
405,405,4 bed condo for sale in klimt cairnhill,71 cairnhill road,klimt cairnhill,condo,4,4,2368,unspecified,1.310546875,103.8125,newton circus,newton,10374000.0,2025,freehold,"2, 3, 4, 5, 6, 7 br"
406,406,1 bed condo for sale in the florence residences,99 hougang avenue 2,the florence residences,condo,1,1,592,unspecified,1.3671875,103.875,kovan,hougang,1007000.0,2023,99-year leasehold,"1, 2, 3, 4, 5 br"
407,407,3 bed condo for sale in lentor modern,lentor central,lentor modern,condo,3,2,1000,unspecified,1.3857421875,103.8125,tagore,ang mo kio,1668400.0,2026,99-year leasehold,"1, 2, 3, 4 br"
408,408,3 bed condo for sale in liv @ mb,114a arthur road,liv @ mb,condo,3,3,1206,unspecified,1.2998046875,103.875,mountbatten,marine parade,2918000.0,2024,99-year leasehold,"studio, 1, 2, 3, 4, 5, 6, 7, 8, 9 br"
409,409,hdb flat for sale in 296b bukit batok street 22,bukit batok / bukit panjang / choa chu kang (d23),skyline ii @ bukit batok,hdb,3,2,1216,unspecified,1.34375,103.75,bukit batok south,bukit batok,966000.0,2017,99-year leasehold,"1, 2, 3, 4 br"
410,410,6 bed house for sale in sentosa cove,treasure island,sentosa cove,bungalow,6,7,11500,unspecified,1.248046875,103.8125,sentosa,southern islands,22890000.0,2010,99-year leasehold,"2, 3, 4, 5, 6, 7, 8, 10 br"
411,411,hdb flat for sale in 834 woodlands street 83,admiralty / woodlands (d25),hdb-woodlands,hdb,6,3,2034,unspecified,1.4404296875,103.8125,midview,woodlands,1155000.0,2004,99-year leasehold,"1, 2, 3, 4, 5, 6, 7 br"
412,412,2 bed condo for sale in the woodleigh residences / the woodleigh mall,25 bidadari park drive,the woodleigh residences / the woodleigh mall,condo,2,2,689,unspecified,1.3388671875,103.875,bidadari,toa payoh,1680000.0,2024,99-year leasehold,"1, 2, 3, 4 br"
413,413,2 bed condo for sale in coastline residences,9 amber road,coastline residences,condo,2,2,710,partial,1.3017578125,103.875,marine parade,marine parade,2068500.0,2022,freehold,"studio, 1, 2, 3, 5 br"
414,414,hdb flat for sale in 508 ang mo kio avenue 8,ang mo kio / bishan / thomson (d20),cheng san crest,hdb,1,1,470,unspecified,1.3740234375,103.875,cheng san,ang mo kio,309800.0,1980,99-year leasehold,"1, 2, 3, 4, 5 br"
415,415,3 bed condo for sale in atlassia,30 joo chiat place,atlassia,condo,3,3,1259,unspecified,1.3134765625,103.875,geylang east,geylang,2402400.0,2025,freehold,"1, 2, 3, 4, 5, 6, 7 br"
416,416,2 bed condo for sale in 1953,1 tessensohn road,1953,condo,2,2,1130,unfurnished,1.3164313,103.8575321,balestier,novena,2363600.0,2023,freehold,"studio, 1, 2, 3, 4, 5, 6 br"
417,417,6 bed house for sale in parkwood collection,lorong 1 realty park,parkwood collection,semi-detached house,6,6,4865,unfurnished,1.3671875,103.875,hougang central,hougang,4267200.0,2022,99-year leasehold,"4, 5, 6 br"
418,418,3 bed condo for sale in the avenir,8 river valley close,the avenir,condo,3,3,1141,unspecified,1.2939453125,103.8125,institution hill,river valley,3114300.0,2025,freehold,"studio, 1, 2, 3, 4, 5 br"
419,419,hdb flat for sale in 113 jalan bukit merah,alexandra / commonwealth (d3),tiong bahru orchid,hdb,2,1,646,unspecified,1.2802734375,103.8125,kampong tiong bahru,bukit merah,346500.0,1969,99-year leasehold,"studio, 2 br"
420,420,3 bed condo for sale in the commodore,59 canberra drive,the commodore,condo,3,2,969,partial,1.44140625,103.8125,sembawang springs,sembawang,1470000.0,2024,99-year leasehold,"1, 2, 3, 4, 5 br"
421,421,3 bed condo for sale in casa pasir ris,201 jalan loyang besar,casa pasir ris,condo,3,3,2421,unspecified,1.3798828125,103.9375,pasir ris park,pasir ris,2202900.0,1997,999-year leasehold,"1, 2, 3 br"
422,422,3 bed condo for sale in mooi residences,139 holland road,mooi residences,condo,3,2,883,unspecified,1.30859375,103.8125,ridout,tanglin,2388800.0,2024,freehold,"studio, 2, 3, 4 br"
423,423,hdb flat for sale in 783d woodlands rise,admiralty / woodlands (d25),woodlands pasture i,hdb,3,2,1001,partial,1.447265625,103.8125,woodlands east,woodlands,556500.0,2017,99-year leasehold,"3, 4 br"
424,424,hdb flat for sale in 684a edgedale plains,hougang / punggol / sengkang (d19),waterway view,hdb,3,2,1216,unspecified,1.39453125,103.9375,punggol field,punggol,871500.0,2017,99-year leasehold,"studio, 2, 3, 4, 5 br"
425,425,4 bed condo for sale in the avenir,8 river valley close,the avenir,condo,4,5,2056,unspecified,1.2939453125,103.8125,institution hill,river valley,6856500.0,2025,freehold,"studio, 1, 2, 3, 4, 5 br"
426,426,3 bed condo for sale in penrose,20 sims drive,penrose,condo,3,2,936,unspecified,1.3193359375,103.875,aljunied,geylang,1564500.0,2025,99-year leasehold,"studio, 1, 2, 3, 4 br"
427,427,1 bed condo for sale in leedon green,34 leedon heights,leedon green,condo,1,1,474,unspecified,1.3125,103.8125,farrer court,bukit timah,1449000.0,2023,freehold,"studio, 1, 2, 3, 4 br"
428,428,2 bed condo for sale in zyanya,8 lorong 25a geylang,zyanya,condo,2,2,614,partial,1.3134765625,103.875,aljunied,geylang,1298800.0,2025,freehold,"1, 2, 3, 4 br"
429,429,5 bed condo for sale in forett @ bukit timah,32 toh tuck road,forett @ bukit timah,condo,5,4,1884,unspecified,1.3388671875,103.75,bukit batok south,bukit batok,4438400.0,2024,freehold,"studio, 1, 2, 3, 4, 5 br"
430,430,hdb flat for sale in 16 hougang avenue 3,hougang / punggol / sengkang (d19),hougang view,hdb,3,2,1324,unfurnished,1.3486328125,103.875,defu industrial park,hougang,630000.0,1975,99-year leasehold,"2, 3, 4 br"
431,431,4 bed condo for sale in bartley vue,6 jalan bunga rampai,bartley vue,condo,4,3,1356,partial,1.3408203125,103.875,joo seng,toa payoh,2541000.0,2026,99-year leasehold,"studio, 1, 2, 3, 4, 5 br"
432,432,2 bed condo for sale in avenue south residence,1 silat avenue,avenue south residence,condo,2,1,657,unspecified,1.3046875,103.75,dover,queenstown,1585500.0,2023,99-year leasehold,"studio, 1, 2, 3, 4 br"
433,433,1 bed condo for sale in the laurels,38 cairnhill road,the laurels,condo,1,1,549,unspecified,1.3046875,103.8125,cairnhill,newton,1732500.0,2013,freehold,"studio, 1, 2, 3, 4 br"
434,434,3 bed ec for sale in ola,70 anchorvale crescent,ola,executive condo,3,3,1055,unspecified,1.3974609375,103.875,anchorvale,sengkang,1155000.0,2023,99-year leasehold,"2, 3, 4, 5 br"
435,435,2 bed condo for sale in van holland,186 holland road,van holland,condo,2,1,689,unspecified,1.30859375,103.8125,ridout,tanglin,2246300.0,2023,freehold,"1, 2, 3, 4, 6 br"
436,436,2 bed condo for sale in the landmark,173 chin swee road,the landmark,condo,2,1,678,partial,1.2861328125,103.8125,pearl's hill,outram,1680000.0,2025,99-year leasehold,"1, 2, 3, 4 br"
437,437,1 bed condo for sale in 26 newton,26 newton road,26 newton,condo,1,1,926,unspecified,1.3154296875,103.8125,moulmein,novena,1963500.0,2016,freehold,"1, 2, 3 br"
438,438,3 bed condo for sale in leedon green,32 leedon heights,leedon green,condo,3,3,1076,unspecified,1.3125,103.8125,farrer court,bukit timah,3255000.0,2023,freehold,"studio, 1, 2, 3, 4 br"
439,439,3 bed condo for sale in mooi residences,139 holland road,mooi residences,condo,3,2,883,unspecified,1.30859375,103.8125,ridout,tanglin,2366600.0,2024,freehold,"studio, 2, 3, 4 br"
440,440,1 bed condo for sale in riviere,1 jiak kim street,riviere,condo,1,1,560,partial,1.302734375,103.875,tanjong rhu,kallang,1680000.0,2023,99-year leasehold,"1, 2, 3, 4, 5 br"
441,441,2 bed condo for sale in royalgreen,2c anamalai avenue,royalgreen,condo,2,2,667,unspecified,1.330078125,103.8125,holland road,bukit timah,1995000.0,2021,freehold,"2, 3, 4, 5 br"
442,442,4 bed condo for sale in midtown modern,18 tan quee lan street,midtown modern,condo,4,3,1808,partial,1.298828125,103.875,bugis,downtown core,5026400.0,2024,99-year leasehold,"studio, 1, 2, 3, 4, 5, 6 br"
443,443,4 bed condo for sale in the gazania,5 how sun drive,the gazania,condo,4,4,1291,unspecified,1.3447265625,103.875,upper paya lebar,serangoon,3018800.0,2022,freehold,"studio, 1, 2, 3, 4, 5 br"
444,444,4 bed condo for sale in pullman residences newton,18 dunearn road,pullman residences newton,condo,4,4,1389,unspecified,1.31640625,103.8125,moulmein,novena,3465000.0,2023,freehold,"studio, 1, 2, 3, 4, 5 br"
445,445,7 bed house for sale in raffles park,linden drive,raffles park,bungalow,7,8,15000,unspecified,1.2841796875,103.875,raffles place,downtown core,33600000.0,1992,freehold,"studio, 4, 5, 6, 7, 8, 9, 10 br"
446,446,hdb flat for sale in 10c bendemeer road,balestier / toa payoh (d12),bendemeer light,hdb,2,2,731,unspecified,1.3154296875,103.875,bendemeer,kallang,766500.0,2017,99-year leasehold,"2, 3 br"
447,447,4 bed house for sale in parc clematis,jalan lempeng,parc clematis,corner terrace,4,5,3466,unspecified,1.3173828125,103.75,faber,clementi,4756500.0,2023,99-year leasehold,"studio, 1, 2, 3, 4, 5 br"
448,448,4 bed condo for sale in mayfair modern,6 rifle range road,mayfair modern,condo,4,3,1292,unspecified,1.3525390625,103.8125,nature reserve,bukit panjang,2902200.0,2024,99-year leasehold,"1, 2, 3, 4, 5 br"
449,449,hdb flat for sale in 989b jurong west street 93,boon lay / jurong / tuas (d22),989b jurong west street 93,hdb,3,2,1001,unfurnished,1.3359375,103.6875,yunnan,jurong west,556500.0,2008,99-year leasehold,"3, 5 br"
450,450,2 bed condo for sale in bayshore park,66 bayshore road,bayshore park,condo,2,2,936,partial,1.3115234375,103.9375,bayshore,bedok,1417500.0,1986,99-year leasehold,"studio, 1, 2, 3, 4 br"
451,451,6 bed house for sale in frankel estate,siglap road,frankel estate,bungalow,6,6,7015,unspecified,1.3173828125,103.9375,frankel,bedok,8998500.0,2014,freehold,"2, 3, 4, 5, 6, 7, 8, 9, 10 br"
452,452,2 bed condo for sale in hyll on holland,95 holland road,hyll on holland,condo,2,2,700,unspecified,1.310546875,103.8125,leedon park,bukit timah,1934700.0,2025,freehold,"studio, 1, 2, 3, 4 br"
453,453,5 bed condo for sale in sky everton,50 everton road,sky everton,condo,5,5,1819,partial,1.275390625,103.8125,everton park,bukit merah,6161400.0,2023,freehold,"1, 2, 3, 4, 5, 6 br"
454,454,1 bed condo for sale in the peak @ cairnhill i,51 cairnhill circle,the peak @ cairnhill i,condo,1,1,527,fully,1.3056640625,103.8125,cairnhill,newton,1680000.0,2014,freehold,"1, 2 br"
455,455,2 bed condo for sale in leedon green,28 leedon heights,leedon green,condo,2,2,775,unspecified,1.3125,103.8125,farrer court,bukit timah,2009700.0,2023,freehold,"studio, 1, 2, 3, 4 br"
456,456,2 bed condo for sale in 8 st thomas,8 saint thomas walk,8 st thomas,condo,2,2,1044,unspecified,1.2958984375,103.8125,leonie hill,river valley,3453300.0,2018,freehold,"1, 2, 3, 4, 5 br"
457,457,hdb flat for sale in 7 ghim moh road,tanglin / holland (d10),ghim moh,hdb,3,2,1259,unspecified,1.3115234375,103.8125,ghim moh,queenstown,754800.0,1977,99-year leasehold,"2, 3, 5 br"
458,458,5 bed condo for sale in canninghill piers / canninghill square,5 clarke quay,canninghill piers / canninghill square,condo,5,7,2875,unspecified,1.2919921875,103.875,clarke quay,singapore river,13440000.0,2026,99-year leasehold,"studio, 1, 2, 3, 4, 5, 6 br"
459,459,2 bed condo for sale in the gazania,15 how sun drive,the gazania,condo,2,2,700,unspecified,1.3447265625,103.875,upper paya lebar,serangoon,1632800.0,2022,freehold,"studio, 1, 2, 3, 4, 5 br"
460,460,3 bed condo for sale in the watergardens at canberra,29 canberra drive,the watergardens at canberra,condo,3,2,1163,unspecified,1.4404296875,103.8125,sembawang springs,sembawang,1621200.0,2026,99-year leasehold,"2, 3, 4, 5 br"
461,461,2 bed condo for sale in hyll on holland,89 holland road,hyll on holland,condo,2,1,570,unfurnished,1.310546875,103.8125,leedon park,bukit timah,1769100.0,2025,freehold,"studio, 1, 2, 3, 4 br"
462,462,3 bed condo for sale in lentor modern,lentor central,lentor modern,condo,3,3,890,unspecified,1.3857421875,103.8125,tagore,ang mo kio,1890000.0,2026,99-year leasehold,"1, 2, 3, 4 br"
463,463,hdb flat for sale in 299 bukit batok street 22,bukit batok / bukit panjang / choa chu kang (d23),hdb-bukit batok,hdb,4,2,1517,unfurnished,1.3447265625,103.75,bukit batok south,bukit batok,840000.0,1987,99-year leasehold,"studio, 1, 2, 3, 4, 5, 6 br"
464,464,2 bed condo for sale in lentor modern,lentor central,lentor modern,condo,2,2,690,partial,1.3857421875,103.8125,tagore,ang mo kio,1449000.0,2026,99-year leasehold,"1, 2, 3, 4 br"
465,465,3 bed condo for sale in peak residence,333 thomson road,peak residence,condo,3,3,1088,unspecified,1.2939453125,103.875,fort canning,museum,2820300.0,2025,freehold,"1, 2, 3, 4, 5 br"
466,466,1 bed condo for sale in one bernam,1 bernam street,one bernam,condo,1,1,441,fully,1.2744140625,103.8125,anson,downtown core,1211400.0,2026,99-year leasehold,"studio, 1, 2, 3, 4, 5 br"
467,467,3 bed condo for sale in meyer mansion,79 meyer road,meyer mansion,condo,3,3,1399,unspecified,1.296875,103.875,mountbatten,marine parade,3913200.0,2024,freehold,"studio, 1, 2, 3, 4, 5 br"
468,468,3 bed condo for sale in the reef at king's dock,10 harbourfront avenue,the reef at king's dock,condo,3,2,1216,unspecified,1.265625,103.8125,maritime square,bukit merah,3095400.0,2025,99-year leasehold,"studio, 1, 2, 3, 4, 5, 6, 7, 10 br"
469,469,3 bed condo for sale in riviere,1 jiak kim street,riviere,condo,3,2,1141,unspecified,1.302734375,103.875,tanjong rhu,kallang,3423000.0,2023,99-year leasehold,"1, 2, 3, 4, 5 br"
470,470,3 bed ec for sale in ecopolitan,124 punggol walk,ecopolitan,executive condo,3,3,1216,unspecified,1.4013671875,103.875,matilda,punggol,1627500.0,2016,99-year leasehold,"studio, 3, 4, 5 br"
471,471,hdb flat for sale in 187 boon lay avenue,boon lay / jurong / tuas (d22),boon lay vista,hdb,2,1,630,unspecified,1.3447265625,103.6875,boon lay place,jurong west,283500.0,1978,99-year leasehold,"1, 2, 3, 5 br"
472,472,3 bed condo for sale in oleanas residence,42 kim yam road,oleanas residence,condo,3,3,1142,unspecified,1.29296875,103.8125,institution hill,river valley,2625000.0,1999,freehold,"3, 4 br"
473,473,2 bed condo for sale in the avenir,8 river valley close,the avenir,condo,2,2,807,unspecified,1.2939453125,103.8125,institution hill,river valley,2828700.0,2025,freehold,"studio, 1, 2, 3, 4, 5 br"
474,474,4 bed condo for sale in midtown modern,18 tan quee lan street,midtown modern,condo,4,4,1442,unspecified,1.298828125,103.875,bugis,downtown core,3780000.0,2024,99-year leasehold,"studio, 1, 2, 3, 4, 5, 6 br"
475,475,hdb flat for sale in 37 cambridge road,farrer park / serangoon rd (d8),hdb-kallang/whampoa,hdb,3,2,1292,unspecified,1.31640625,103.875,kampong java,kallang,976500.0,1997,99-year leasehold,"1, 2, 3, 4, 5, 6 br"
476,476,hdb flat for sale in 416 clementi avenue 1,buona vista / west coast / clementi (d5),casa clementi,hdb,3,2,1076,unfurnished,1.310546875,103.75,clementi woods,clementi,827400.0,2013,99-year leasehold,"1, 2, 3, 5 br"
477,477,2 bed condo for sale in hyll on holland,87 holland road,hyll on holland,condo,2,2,700,unspecified,1.310546875,103.8125,leedon park,bukit timah,1900500.0,2025,freehold,"studio, 1, 2, 3, 4 br"
478,478,4 bed condo for sale in jadescape,8 shunfu road,jadescape,condo,4,3,1421,partial,1.3525390625,103.8125,upper thomson,bishan,3286500.0,2023,99-year leasehold,"1, 2, 3, 4, 5 br"
479,479,hdb flat for sale in 416 clementi avenue 1,buona vista / west coast / clementi (d5),casa clementi,hdb,3,2,1076,unspecified,1.310546875,103.75,clementi woods,clementi,827400.0,2013,99-year leasehold,"1, 2, 3, 5 br"
480,480,hdb flat for sale in 336b yishun street 31,sembawang / yishun (d27),yishun riverwalk,hdb,2,2,721,fully,1.431640625,103.875,yishun east,yishun,462000.0,2015,99-year leasehold,"studio, 2, 3, 4 br"
481,481,4 bed condo for sale in liv @ mb,114a arthur road,liv @ mb,condo,4,4,1518,unspecified,1.2998046875,103.875,mountbatten,marine parade,3780000.0,2024,99-year leasehold,"studio, 1, 2, 3, 4, 5, 6, 7, 8, 9 br"
482,482,hdb flat for sale in 457 pasir ris drive 4,pasir ris / tampines (d18),hdb-pasir ris,hdb,4,2,1550,unspecified,1.3720703125,103.9375,pasir ris drive,pasir ris,911400.0,1989,99-year leasehold,"studio, 1, 2, 3, 4, 5, 6 br"
483,483,3 bed ec for sale in the rainforest,331 choa chu kang avenue 3,the rainforest,executive condo,3,2,947,unspecified,1.3837890625,103.75,choa chu kang central,choa chu kang,1344000.0,2015,99-year leasehold,"2, 3, 4 br"
484,484,2 bed condo for sale in perfect ten,323 bukit timah road,perfect ten,condo,2,2,756,partial,1.3173828125,103.8125,nassim,tanglin,2362500.0,2025,freehold,"studio, 2, 3, 4 br"
485,485,7 bed house for sale in tai keng villas,jalan kelichap,tai keng villas,corner terrace,7,6,3300,unspecified,1.34765625,103.875,tai seng,hougang,3465000.0,1999,99-year leasehold,"5, 6, 7, 8 br"
486,486,hdb flat for sale in 31 ghim moh link,tanglin / holland (d10),ghim moh edge,hdb,3,2,1001,unspecified,1.3095703125,103.8125,ghim moh,queenstown,1050000.0,2017,99-year leasehold,"2, 3 br"
487,487,6 bed house for sale in frankel estate,siglap road,frankel estate,bungalow,6,7,7015,unspecified,1.3173828125,103.9375,frankel,bedok,8998500.0,2014,freehold,"2, 3, 4, 5, 6, 7, 8, 9, 10 br"
